{
  "generated_at": "2026-06-30T00:37:03.048Z",
  "source": {
    "discovery_url": "https://gbfs.baywheels.com/gbfs/2.3/gbfs.json",
    "station_information_url": "https://gbfs.lyft.com/gbfs/2.3/bay/es/station_information.json",
    "station_status_url": "https://gbfs.lyft.com/gbfs/2.3/bay/es/station_status.json"
  },
  "stations": [
    {
      "id": "1d0da57a-5fe4-48af-b66b-5f380706eb4e",
      "name": "Garfield Square",
      "lat": 37.750945,
      "lon": -122.4120835,
      "capacity": 23,
      "is_operational": true,
      "num_bikes_available": 4,
      "num_docks_available": 18,
      "last_reported": 1782779745
    },
    {
      "id": "e66227f7-bd49-46be-b5ee-ce6518ac9dd4",
      "name": "Hubbell St at 16th St",
      "lat": 37.766594,
      "lon": -122.398198,
      "capacity": 27,
      "is_operational": true,
      "num_bikes_available": 4,
      "num_docks_available": 22,
      "last_reported": 1782779740
    },
    {
      "id": "2217058896873392140",
      "name": "Kearny St at California St",
      "lat": 37.79283635782951,
      "lon": -122.40456148443903,
      "capacity": 19,
      "is_operational": true,
      "num_bikes_available": 7,
      "num_docks_available": 10,
      "last_reported": 1782779710
    },
    {
      "id": "3612155a-0fb2-4e66-8bab-f81979bfe54a",
      "name": "Myrtle St at Polk St",
      "lat": 37.785479,
      "lon": -122.419342,
      "capacity": 27,
      "is_operational": true,
      "num_bikes_available": 2,
      "num_docks_available": 25,
      "last_reported": 1782779714
    },
    {
      "id": "1814898016477358476",
      "name": "Taylor St at Columbus Ave",
      "lat": 37.80330737378947,
      "lon": -122.41489757374517,
      "capacity": 27,
      "is_operational": true,
      "num_bikes_available": 8,
      "num_docks_available": 19,
      "last_reported": 1782779716
    },
    {
      "id": "4938bd2c-37c1-4be9-9ad3-3b3d3d589248",
      "name": "34th Ave at Balboa St",
      "lat": 37.775681,
      "lon": -122.494064,
      "capacity": 19,
      "is_operational": true,
      "num_bikes_available": 7,
      "num_docks_available": 11,
      "last_reported": 1782779723
    },
    {
      "id": "1859006602356631814",
      "name": "26th Ave at Clement St",
      "lat": 37.78175809088735,
      "lon": -122.48602866997177,
      "capacity": 16,
      "is_operational": true,
      "num_bikes_available": 6,
      "num_docks_available": 10,
      "last_reported": 1782779725
    },
    {
      "id": "1857579372066731006",
      "name": "5th St at Howard St",
      "lat": 37.7813332251007,
      "lon": -122.4048243192974,
      "capacity": 24,
      "is_operational": true,
      "num_bikes_available": 2,
      "num_docks_available": 19,
      "last_reported": 1782779725
    },
    {
      "id": "1e5323d3-5bd3-4259-a9d4-aec0e09d8f56",
      "name": "O'Farrell St at Masonic Ave",
      "lat": 37.781130551698666,
      "lon": -122.44737446308135,
      "capacity": 26,
      "is_operational": true,
      "num_bikes_available": 0,
      "num_docks_available": 23,
      "last_reported": 1782779725
    },
    {
      "id": "874736bb-35c8-48e8-a4d7-e8e811d418da",
      "name": "48th Ave at Cabrillo St",
      "lat": 37.772954,
      "lon": -122.509071,
      "capacity": 23,
      "is_operational": true,
      "num_bikes_available": 1,
      "num_docks_available": 22,
      "last_reported": 1782779724
    },
    {
      "id": "35e3bf9b-4c65-4f2b-9d46-32afe9fe82d9",
      "name": "Mason St at Halleck St",
      "lat": 37.803968,
      "lon": -122.455079,
      "capacity": 18,
      "is_operational": true,
      "num_bikes_available": 11,
      "num_docks_available": 7,
      "last_reported": 1782779727
    },
    {
      "id": "7b2083d3-b1bb-4ef3-ba53-bebc831bd0a4",
      "name": "Lombard St at Columbus Ave",
      "lat": 37.8027671,
      "lon": -122.4132756,
      "capacity": 19,
      "is_operational": true,
      "num_bikes_available": 10,
      "num_docks_available": 8,
      "last_reported": 1782779712
    },
    {
      "id": "2127330633410148738",
      "name": "Westlake Ave at Miriam St",
      "lat": 37.69951422024016,
      "lon": -122.46513118543349,
      "capacity": 8,
      "is_operational": true,
      "num_bikes_available": 4,
      "num_docks_available": 4,
      "last_reported": 1782779547
    },
    {
      "id": "c7879d87-34c8-4b23-9c07-250fb012bd4b",
      "name": "30th St at San Jose Ave",
      "lat": 37.7423139,
      "lon": -122.4231805,
      "capacity": 15,
      "is_operational": true,
      "num_bikes_available": 2,
      "num_docks_available": 12,
      "last_reported": 1782779723
    },
    {
      "id": "63b2136c-c947-473e-977e-8cc0e6347699",
      "name": "Webster St at Clay St",
      "lat": 37.79080303242391,
      "lon": -122.43259012699126,
      "capacity": 19,
      "is_operational": true,
      "num_bikes_available": 19,
      "num_docks_available": 0,
      "last_reported": 1782779730
    },
    {
      "id": "1779272240211880856",
      "name": "Irving St at 17th Ave",
      "lat": 37.763721184118076,
      "lon": -122.4753742486682,
      "capacity": 27,
      "is_operational": true,
      "num_bikes_available": 5,
      "num_docks_available": 20,
      "last_reported": 1782779732
    },
    {
      "id": "c4c4484d-0e18-44d4-a992-c5d0550ba94d",
      "name": "Williams Ave at 3rd St",
      "lat": 37.729278651730276,
      "lon": -122.39289611577988,
      "capacity": 19,
      "is_operational": true,
      "num_bikes_available": 3,
      "num_docks_available": 15,
      "last_reported": 1782779734
    },
    {
      "id": "2092453326128186042",
      "name": "Lincoln Blvd at Bowley St",
      "lat": 37.79206724210018,
      "lon": -122.48120889210267,
      "capacity": 18,
      "is_operational": true,
      "num_bikes_available": 8,
      "num_docks_available": 10,
      "last_reported": 1782779737
    },
    {
      "id": "36ecea1d-48aa-416b-96d3-7698658759e5",
      "name": "Irving St at 21st Ave",
      "lat": 37.76352708498452,
      "lon": -122.47949242628238,
      "capacity": 19,
      "is_operational": true,
      "num_bikes_available": 5,
      "num_docks_available": 12,
      "last_reported": 1782779738
    },
    {
      "id": "1779288244570497764",
      "name": "La Playa St at Lincoln Way",
      "lat": 37.763874,
      "lon": -122.509526,
      "capacity": 23,
      "is_operational": true,
      "num_bikes_available": 8,
      "num_docks_available": 15,
      "last_reported": 1782779738
    },
    {
      "id": "2a229da1-a8bc-485a-982b-df0c9de6d11e",
      "name": "Howard St at Hawthorne St",
      "lat": 37.78571119302914,
      "lon": -122.39974901175223,
      "capacity": 19,
      "is_operational": true,
      "num_bikes_available": 12,
      "num_docks_available": 5,
      "last_reported": 1782779751
    },
    {
      "id": "2088720413948029938",
      "name": "Bush St at Leavenworth St",
      "lat": 37.78942643725219,
      "lon": -122.41517064379924,
      "capacity": 19,
      "is_operational": true,
      "num_bikes_available": 2,
      "num_docks_available": 16,
      "last_reported": 1782779751
    },
    {
      "id": "cf56994c-cdd6-4586-9f56-eea2f51e81ae",
      "name": "Mechanics Monument Plaza",
      "lat": 37.7913,
      "lon": -122.399051,
      "capacity": 31,
      "is_operational": true,
      "num_bikes_available": 3,
      "num_docks_available": 26,
      "last_reported": 1782779752
    },
    {
      "id": "e4e5d6b1-a335-41a9-8efe-4c4d9294d6e2",
      "name": "Townsend St at 7th St",
      "lat": 37.771058,
      "lon": -122.402717,
      "capacity": 27,
      "is_operational": true,
      "num_bikes_available": 4,
      "num_docks_available": 21,
      "last_reported": 1782779745
    },
    {
      "id": "1784516117206143850",
      "name": "Ortega St at 40th Ave",
      "lat": 37.751471937685125,
      "lon": -122.49855753927035,
      "capacity": 23,
      "is_operational": true,
      "num_bikes_available": 4,
      "num_docks_available": 19,
      "last_reported": 1782779749
    },
    {
      "id": "c0bc3212-1e26-438b-9ebd-ea1d1c8e92ef",
      "name": "Goettingen St at Bacon St",
      "lat": 37.72694296622841,
      "lon": -122.40659952163695,
      "capacity": 23,
      "is_operational": true,
      "num_bikes_available": 4,
      "num_docks_available": 19,
      "last_reported": 1782779752
    },
    {
      "id": "6156f831-ca96-459d-aafe-685420751e4d",
      "name": "Howard St at 8th St",
      "lat": 37.7765126,
      "lon": -122.4113061,
      "capacity": 27,
      "is_operational": true,
      "num_bikes_available": 3,
      "num_docks_available": 24,
      "last_reported": 1782779755
    },
    {
      "id": "73fccaab-205c-4b1e-a547-5fb0f2a58056",
      "name": "McAllister St at Baker St",
      "lat": 37.77738752500588,
      "lon": -122.4419523104363,
      "capacity": 27,
      "is_operational": true,
      "num_bikes_available": 5,
      "num_docks_available": 22,
      "last_reported": 1782779759
    },
    {
      "id": "2d63ccd8-6a9a-49de-9404-2ebb9ac3bf59",
      "name": "North Point St at Powell St",
      "lat": 37.806929,
      "lon": -122.411536,
      "capacity": 28,
      "is_operational": true,
      "num_bikes_available": 9,
      "num_docks_available": 17,
      "last_reported": 1782779760
    },
    {
      "id": "b513d838-5423-490c-bf7d-9f20771cf529",
      "name": "Arguello Blvd at Geary Blvd",
      "lat": 37.78146761537824,
      "lon": -122.45880603790283,
      "capacity": 19,
      "is_operational": true,
      "num_bikes_available": 9,
      "num_docks_available": 7,
      "last_reported": 1782779761
    },
    {
      "id": "b1a957d2-5e0e-4a99-bca3-7f3db21d30eb",
      "name": "Broderick St at Oak St",
      "lat": 37.7730627,
      "lon": -122.4390777,
      "capacity": 27,
      "is_operational": true,
      "num_bikes_available": 15,
      "num_docks_available": 10,
      "last_reported": 1782779763
    },
    {
      "id": "43974bf5-147b-4348-aed6-eb29626cb1cf",
      "name": "Bay St at Fillmore St",
      "lat": 37.8026635,
      "lon": -122.4360635,
      "capacity": 27,
      "is_operational": true,
      "num_bikes_available": 11,
      "num_docks_available": 14,
      "last_reported": 1782779764
    },
    {
      "id": "1939935353415397414",
      "name": "Cambon Dr at Castelo Ave",
      "lat": 37.71768610064344,
      "lon": -122.47431779005021,
      "capacity": 19,
      "is_operational": true,
      "num_bikes_available": 7,
      "num_docks_available": 11,
      "last_reported": 1782779687
    },
    {
      "id": "194a64ab-b6b4-4724-bd21-01b4e9cbe629",
      "name": "23rd St at Tennessee St",
      "lat": 37.755367132158526,
      "lon": -122.38879501819609,
      "capacity": 31,
      "is_operational": true,
      "num_bikes_available": 15,
      "num_docks_available": 15,
      "last_reported": 1782779688
    },
    {
      "id": "9a97cfb1-8882-4dfc-a075-2c22d646e457",
      "name": "Mississippi St at 17th St",
      "lat": 37.764794,
      "lon": -122.3947595,
      "capacity": 31,
      "is_operational": true,
      "num_bikes_available": 0,
      "num_docks_available": 29,
      "last_reported": 1782779696
    },
    {
      "id": "434e592c-be93-4300-b76a-98de4cd3326e",
      "name": "Steiner St at California St",
      "lat": 37.788568914161615,
      "lon": -122.43540108203887,
      "capacity": 19,
      "is_operational": true,
      "num_bikes_available": 1,
      "num_docks_available": 15,
      "last_reported": 1782779698
    },
    {
      "id": "1bd76a29-5890-4194-993c-666c09af9993",
      "name": "Randall St at Chenery St",
      "lat": 37.73983296948461,
      "lon": -122.42574964326917,
      "capacity": 17,
      "is_operational": true,
      "num_bikes_available": 0,
      "num_docks_available": 16,
      "last_reported": 1782779703
    },
    {
      "id": "9cac67a2-9219-455e-b3db-c771311c5b33",
      "name": "23rd St at San Bruno Ave",
      "lat": 37.75452190090258,
      "lon": -122.40403879371094,
      "capacity": 15,
      "is_operational": true,
      "num_bikes_available": 2,
      "num_docks_available": 13,
      "last_reported": 1782779704
    },
    {
      "id": "1788900668107346898",
      "name": "Hudson Ave at 3rd St",
      "lat": 37.74058873182711,
      "lon": -122.38908866713396,
      "capacity": 13,
      "is_operational": true,
      "num_bikes_available": 8,
      "num_docks_available": 4,
      "last_reported": 1782779705
    },
    {
      "id": "8971b4a0-9868-422f-904c-d4c180fc34ae",
      "name": "Anza St at Collins St",
      "lat": 37.78068,
      "lon": -122.450012,
      "capacity": 29,
      "is_operational": true,
      "num_bikes_available": 6,
      "num_docks_available": 23,
      "last_reported": 1782779703
    },
    {
      "id": "03eb8b17-d20f-400c-a98a-dcbc947228af",
      "name": "Victoria Manalo Draves Park",
      "lat": 37.777604,
      "lon": -122.406215,
      "capacity": 15,
      "is_operational": true,
      "num_bikes_available": 4,
      "num_docks_available": 10,
      "last_reported": 1782779706
    },
    {
      "id": "9b4f6ef0-4568-4f52-8226-ec8432b75802",
      "name": "5th Ave at Anza St",
      "lat": 37.77948760924334,
      "lon": -122.46314182877539,
      "capacity": 21,
      "is_operational": true,
      "num_bikes_available": 5,
      "num_docks_available": 16,
      "last_reported": 1782779707
    },
    {
      "id": "1950739878248286808",
      "name": "Toland St at Jerrold Ave",
      "lat": 37.7438687228972,
      "lon": -122.39887463673973,
      "capacity": 13,
      "is_operational": true,
      "num_bikes_available": 5,
      "num_docks_available": 7,
      "last_reported": 1782779628
    },
    {
      "id": "41b2200f-7915-410b-95c6-084bc4d3dee8",
      "name": "Detroit St at Hearst Ave",
      "lat": 37.730655429236556,
      "lon": -122.44430475172521,
      "capacity": 19,
      "is_operational": true,
      "num_bikes_available": 3,
      "num_docks_available": 16,
      "last_reported": 1782779672
    },
    {
      "id": "49754dc9-1925-4020-a599-704c9f064b03",
      "name": "11th St at Natoma St",
      "lat": 37.7735069,
      "lon": -122.4160402,
      "capacity": 19,
      "is_operational": true,
      "num_bikes_available": 0,
      "num_docks_available": 19,
      "last_reported": 1782779666
    },
    {
      "id": "aacc087a-f075-4682-a0df-be4c30c4a632",
      "name": "Guerrero Park",
      "lat": 37.745954874650344,
      "lon": -122.42216133586244,
      "capacity": 15,
      "is_operational": true,
      "num_bikes_available": 3,
      "num_docks_available": 12,
      "last_reported": 1782779676
    },
    {
      "id": "2088720185650487364",
      "name": "Powell St at Green St",
      "lat": 37.79914436024966,
      "lon": -122.41068881253082,
      "capacity": 19,
      "is_operational": true,
      "num_bikes_available": 12,
      "num_docks_available": 6,
      "last_reported": 1782779659
    },
    {
      "id": "a7da1857-747a-4507-9d8f-2a9f95f0babf",
      "name": "San Francisco Caltrain Station - King St",
      "lat": 37.7763115,
      "lon": -122.394495,
      "capacity": 18,
      "is_operational": true,
      "num_bikes_available": 4,
      "num_docks_available": 14,
      "last_reported": 1782779664
    },
    {
      "id": "2001968238123600070",
      "name": "Quintara St at Great Highway",
      "lat": 37.74732995515812,
      "lon": -122.50753516831912,
      "capacity": 15,
      "is_operational": true,
      "num_bikes_available": 7,
      "num_docks_available": 7,
      "last_reported": 1782779691
    },
    {
      "id": "1858693616015893032",
      "name": "Anza St at 19th Ave",
      "lat": 37.77855734730058,
      "lon": -122.47798977442686,
      "capacity": 19,
      "is_operational": true,
      "num_bikes_available": 10,
      "num_docks_available": 5,
      "last_reported": 1782779694
    },
    {
      "id": "930fe54f-5572-4900-8910-6041386560bf",
      "name": "Market St at Dolores St",
      "lat": 37.769244,
      "lon": -122.4269645,
      "capacity": 19,
      "is_operational": true,
      "num_bikes_available": 8,
      "num_docks_available": 8,
      "last_reported": 1782779695
    },
    {
      "id": "1774489540781376334",
      "name": "36th Ave at Irving St",
      "lat": 37.7628993,
      "lon": -122.4953893,
      "capacity": 23,
      "is_operational": true,
      "num_bikes_available": 8,
      "num_docks_available": 14,
      "last_reported": 1782779767
    },
    {
      "id": "d79ae08e-a8d2-4aad-9f98-9b20afb8f6e0",
      "name": "Howard St at 2nd St",
      "lat": 37.78646613354221,
      "lon": -122.39871607983103,
      "capacity": 18,
      "is_operational": true,
      "num_bikes_available": 7,
      "num_docks_available": 10,
      "last_reported": 1782779767
    },
    {
      "id": "2072118173388302882",
      "name": "Kearny St at Bush St",
      "lat": 37.79096333689464,
      "lon": -122.40419892776805,
      "capacity": 31,
      "is_operational": true,
      "num_bikes_available": 9,
      "num_docks_available": 21,
      "last_reported": 1782779767
    },
    {
      "id": "2e4f2c49-1201-4d77-ba41-9917293f1eeb",
      "name": "Brighton Ave at Ocean Ave",
      "lat": 37.723426,
      "lon": -122.455102,
      "capacity": 19,
      "is_operational": true,
      "num_bikes_available": 4,
      "num_docks_available": 15,
      "last_reported": 1782779766
    },
    {
      "id": "e98999ee-5c3d-48b8-8735-baf6518ad915",
      "name": "Grove St at Masonic Ave",
      "lat": 37.774804,
      "lon": -122.446649,
      "capacity": 31,
      "is_operational": true,
      "num_bikes_available": 2,
      "num_docks_available": 26,
      "last_reported": 1782779764
    },
    {
      "id": "1de96988-6dfc-4f97-8570-6d8664b6e88a",
      "name": "Pierce St at Haight St",
      "lat": 37.7717933,
      "lon": -122.4337079,
      "capacity": 27,
      "is_operational": true,
      "num_bikes_available": 7,
      "num_docks_available": 19,
      "last_reported": 1782779764
    },
    {
      "id": "4d2b40cb-88e2-4371-8532-b1e52e797c8c",
      "name": "Harrison St at 17th St",
      "lat": 37.7638471,
      "lon": -122.4130036,
      "capacity": 19,
      "is_operational": true,
      "num_bikes_available": 9,
      "num_docks_available": 8,
      "last_reported": 1782779772
    },
    {
      "id": "1822622c-b9e0-43fe-8bf9-9f26024aa426",
      "name": "8th St at Ringold St",
      "lat": 37.77452040113685,
      "lon": -122.4094493687153,
      "capacity": 31,
      "is_operational": true,
      "num_bikes_available": 0,
      "num_docks_available": 29,
      "last_reported": 1782779770
    },
    {
      "id": "71944da6-f667-4ca6-ace6-70765d46a529",
      "name": "Post St at Baker St",
      "lat": 37.783973,
      "lon": -122.442878,
      "capacity": 27,
      "is_operational": true,
      "num_bikes_available": 1,
      "num_docks_available": 26,
      "last_reported": 1782779770
    },
    {
      "id": "2b935f1b-2659-4d82-a348-6a3bb083914d",
      "name": "Sutter St at Montgomery St",
      "lat": 37.790044438426044,
      "lon": -122.40199392970875,
      "capacity": 35,
      "is_operational": true,
      "num_bikes_available": 17,
      "num_docks_available": 17,
      "last_reported": 1782779770
    },
    {
      "id": "47894de7-32c7-48ac-aa44-57c8def8a7f3",
      "name": "Frida Kahlo Way at Cloud Cir",
      "lat": 37.72547719176656,
      "lon": -122.45228647426156,
      "capacity": 27,
      "is_operational": true,
      "num_bikes_available": 13,
      "num_docks_available": 14,
      "last_reported": 1782779770
    },
    {
      "id": "4c98bff8-3bd8-480e-ac8f-25fa4b09f84e",
      "name": "Brannan St at Colin P Kelly Jr St",
      "lat": 37.7822586,
      "lon": -122.3914651,
      "capacity": 35,
      "is_operational": true,
      "num_bikes_available": 8,
      "num_docks_available": 27,
      "last_reported": 1782779771
    },
    {
      "id": "6732f1f5-616c-46bc-81e6-67c5319b3c73",
      "name": "Battery St at Filbert St",
      "lat": 37.8020552,
      "lon": -122.4017154,
      "capacity": 31,
      "is_operational": true,
      "num_bikes_available": 26,
      "num_docks_available": 5,
      "last_reported": 1782779771
    },
    {
      "id": "1a7a0757-fbbb-497e-b92b-cb0817cab274",
      "name": "Evans Ave at Newhall St",
      "lat": 37.742075235944235,
      "lon": -122.38660231232642,
      "capacity": 19,
      "is_operational": true,
      "num_bikes_available": 5,
      "num_docks_available": 14,
      "last_reported": 1782779771
    },
    {
      "id": "ab03623f-6fe9-4e9b-b38b-6e98513082d1",
      "name": "Brannan St at 7th St",
      "lat": 37.7724385,
      "lon": -122.4039235,
      "capacity": 24,
      "is_operational": true,
      "num_bikes_available": 4,
      "num_docks_available": 20,
      "last_reported": 1782779771
    },
    {
      "id": "482f48f4-7ed6-4e69-a778-a2aba0f39c80",
      "name": "4th St at 16th St",
      "lat": 37.76704457969368,
      "lon": -122.39083349704742,
      "capacity": 35,
      "is_operational": true,
      "num_bikes_available": 0,
      "num_docks_available": 34,
      "last_reported": 1782779771
    },
    {
      "id": "1864950509211538346",
      "name": "Polk St at Bush St",
      "lat": 37.78847870510701,
      "lon": -122.42033508761928,
      "capacity": 23,
      "is_operational": true,
      "num_bikes_available": 8,
      "num_docks_available": 15,
      "last_reported": 1782779774
    },
    {
      "id": "2230146385428906858",
      "name": "San Francisco Zoo",
      "lat": 37.735335,
      "lon": -122.505489,
      "capacity": 15,
      "is_operational": true,
      "num_bikes_available": 5,
      "num_docks_available": 9,
      "last_reported": 1782779770
    },
    {
      "id": "f6c0f2ed-11cc-4b74-9d03-f2b298c9bd1b",
      "name": "Mission Playground",
      "lat": 37.75901675476946,
      "lon": -122.42145756626786,
      "capacity": 23,
      "is_operational": true,
      "num_bikes_available": 13,
      "num_docks_available": 7,
      "last_reported": 1782779775
    },
    {
      "id": "0fc2ae3f-b5ac-493b-bd93-8300b601f9db",
      "name": "29th St at Church St",
      "lat": 37.7436839,
      "lon": -122.4268059,
      "capacity": 15,
      "is_operational": true,
      "num_bikes_available": 0,
      "num_docks_available": 14,
      "last_reported": 1782779775
    },
    {
      "id": "180e4d99-3717-4b99-8200-671af652921f",
      "name": "Fell St at Stanyan St",
      "lat": 37.7719511,
      "lon": -122.4537048,
      "capacity": 19,
      "is_operational": true,
      "num_bikes_available": 16,
      "num_docks_available": 2,
      "last_reported": 1782779776
    },
    {
      "id": "2114365359206953814",
      "name": "West Portal MUNI",
      "lat": 37.740984408782154,
      "lon": -122.46569897816308,
      "capacity": 16,
      "is_operational": true,
      "num_bikes_available": 0,
      "num_docks_available": 15,
      "last_reported": 1782779775
    },
    {
      "id": "cae028f4-b136-4297-8f28-559986e3f810",
      "name": "Harrison St at 20th St",
      "lat": 37.758862,
      "lon": -122.412544,
      "capacity": 19,
      "is_operational": true,
      "num_bikes_available": 7,
      "num_docks_available": 11,
      "last_reported": 1782779776
    },
    {
      "id": "2815280a-8263-4537-a944-4fdc32774fde",
      "name": "7th Ave at Cabrillo St",
      "lat": 37.7751205,
      "lon": -122.464998,
      "capacity": 23,
      "is_operational": true,
      "num_bikes_available": 4,
      "num_docks_available": 17,
      "last_reported": 1782779777
    },
    {
      "id": "1903579136030360500",
      "name": "Fell St at Clayton St",
      "lat": 37.77256103441637,
      "lon": -122.44890733174485,
      "capacity": 27,
      "is_operational": true,
      "num_bikes_available": 12,
      "num_docks_available": 10,
      "last_reported": 1782779778
    },
    {
      "id": "2127330139488909690",
      "name": "Mission St at John Daly Blvd",
      "lat": 37.705224075649866,
      "lon": -122.46239250112515,
      "capacity": 8,
      "is_operational": true,
      "num_bikes_available": 4,
      "num_docks_available": 4,
      "last_reported": 1782779778
    },
    {
      "id": "2127330289470781728",
      "name": "Westlake Library",
      "lat": 37.69729765046299,
      "lon": -122.48545017210475,
      "capacity": 8,
      "is_operational": true,
      "num_bikes_available": 3,
      "num_docks_available": 4,
      "last_reported": 1782779528
    },
    {
      "id": "1962925195831102292",
      "name": "San Francisco Caltrain Station - 4th St",
      "lat": 37.776454678641656,
      "lon": -122.3943768096982,
      "capacity": 12,
      "is_operational": true,
      "num_bikes_available": 4,
      "num_docks_available": 8,
      "last_reported": 1782779638
    },
    {
      "id": "38a24ab3-8b5e-4d6d-804b-d4e89d19601e",
      "name": "Townsend St at 5th St",
      "lat": 37.77523486860597,
      "lon": -122.39743709564209,
      "capacity": 35,
      "is_operational": true,
      "num_bikes_available": 8,
      "num_docks_available": 27,
      "last_reported": 1782779665
    },
    {
      "id": "9202aa09-26ee-4220-9281-c66b7bbe7b38",
      "name": "Cesar Chavez St at Dolores St",
      "lat": 37.7478584,
      "lon": -122.4249863,
      "capacity": 15,
      "is_operational": true,
      "num_bikes_available": 4,
      "num_docks_available": 11,
      "last_reported": 1782779667
    },
    {
      "id": "34254a87-40e5-462a-804f-20dab65726e4",
      "name": "Clay St at Lyon St",
      "lat": 37.7892792,
      "lon": -122.4450687,
      "capacity": 23,
      "is_operational": true,
      "num_bikes_available": 0,
      "num_docks_available": 21,
      "last_reported": 1782779674
    },
    {
      "id": "d82d9e94-bb62-4001-b6ad-50603199554d",
      "name": "Cruise Terminal at Pier 27",
      "lat": 37.804648,
      "lon": -122.402087,
      "capacity": 23,
      "is_operational": true,
      "num_bikes_available": 19,
      "num_docks_available": 1,
      "last_reported": 1782779659
    },
    {
      "id": "fa33d61b-8ba5-4c23-9603-8d9ebf167d5d",
      "name": "Dolores St at 15th St",
      "lat": 37.7661,
      "lon": -122.4266585,
      "capacity": 19,
      "is_operational": true,
      "num_bikes_available": 4,
      "num_docks_available": 15,
      "last_reported": 1782779678
    },
    {
      "id": "0c9f99fe-9f18-4489-bf50-c744a7288819",
      "name": "Torney Ave at Lincoln Blvd",
      "lat": 37.799676,
      "lon": -122.452599,
      "capacity": 23,
      "is_operational": true,
      "num_bikes_available": 9,
      "num_docks_available": 13,
      "last_reported": 1782779680
    },
    {
      "id": "c8a342d4-3bf7-4619-9ae1-9b382d5440e1",
      "name": "Greenwich St at Gough St",
      "lat": 37.800079,
      "lon": -122.427518,
      "capacity": 19,
      "is_operational": true,
      "num_bikes_available": 4,
      "num_docks_available": 13,
      "last_reported": 1782779676
    },
    {
      "id": "2127330451353517020",
      "name": "School St at Bruno Ave",
      "lat": 37.69342998657259,
      "lon": -122.46572981327651,
      "capacity": 8,
      "is_operational": true,
      "num_bikes_available": 2,
      "num_docks_available": 4,
      "last_reported": 1782779532
    },
    {
      "id": "1797852360041415006",
      "name": "Delancey St at Brannan St",
      "lat": 37.78384421884662,
      "lon": -122.390002088434,
      "capacity": 27,
      "is_operational": true,
      "num_bikes_available": 1,
      "num_docks_available": 25,
      "last_reported": 1782779687
    },
    {
      "id": "b2e9118f-aafb-49fb-b237-4ba08e21f51f",
      "name": "San Francisco Ferry Building",
      "lat": 37.795392,
      "lon": -122.394203,
      "capacity": 38,
      "is_operational": true,
      "num_bikes_available": 35,
      "num_docks_available": 0,
      "last_reported": 1782779687
    },
    {
      "id": "743f63f9-ee7d-46b9-9b71-2ac8ed0a4a26",
      "name": "Montgomery St at Pacific Ave",
      "lat": 37.7971765,
      "lon": -122.4036272,
      "capacity": 15,
      "is_operational": true,
      "num_bikes_available": 0,
      "num_docks_available": 15,
      "last_reported": 1782779689
    },
    {
      "id": "7d15210b-55fb-4456-8281-781cfa9d5594",
      "name": "Waller St at Shrader St",
      "lat": 37.768384314385024,
      "lon": -122.45196695803196,
      "capacity": 27,
      "is_operational": true,
      "num_bikes_available": 12,
      "num_docks_available": 15,
      "last_reported": 1782779687
    },
    {
      "id": "615bca10-5b2a-4b7e-876c-04c4d3d9e360",
      "name": "Precita Park",
      "lat": 37.747281,
      "lon": -122.41139,
      "capacity": 15,
      "is_operational": true,
      "num_bikes_available": 8,
      "num_docks_available": 7,
      "last_reported": 1782779688
    },
    {
      "id": "759c388e-ab9b-40c2-ae96-ee5190264916",
      "name": "22nd St at Valencia St",
      "lat": 37.755279555311766,
      "lon": -122.42113704087866,
      "capacity": 19,
      "is_operational": true,
      "num_bikes_available": 12,
      "num_docks_available": 7,
      "last_reported": 1782779688
    },
    {
      "id": "6ab85eb1-e112-4c57-8a44-110120d68a1d",
      "name": "Civic Center BART",
      "lat": 37.7810737,
      "lon": -122.4117382,
      "capacity": 31,
      "is_operational": true,
      "num_bikes_available": 8,
      "num_docks_available": 21,
      "last_reported": 1782779699
    },
    {
      "id": "b8c5214e-5d26-47d0-aba5-d62ef145d083",
      "name": "Alameda St at Henry Adams St",
      "lat": 37.7685449,
      "lon": -122.40423738710535,
      "capacity": 27,
      "is_operational": true,
      "num_bikes_available": 1,
      "num_docks_available": 26,
      "last_reported": 1782779695
    },
    {
      "id": "cb20f487-2e7d-4c11-9f19-2b669ff9fd7f",
      "name": "Green St at Van Ness Ave",
      "lat": 37.79762790889688,
      "lon": -122.423534989357,
      "capacity": 23,
      "is_operational": true,
      "num_bikes_available": 21,
      "num_docks_available": 1,
      "last_reported": 1782779694
    },
    {
      "id": "ec02b98c-1713-4033-9466-47146c77d476",
      "name": "London St at Geneva Ave",
      "lat": 37.71616094545787,
      "lon": -122.440105676651,
      "capacity": 16,
      "is_operational": true,
      "num_bikes_available": 7,
      "num_docks_available": 9,
      "last_reported": 1782779695
    },
    {
      "id": "1940303648929886926",
      "name": "Cortland Ave at Wool St",
      "lat": 37.739080619245414,
      "lon": -122.41730805311877,
      "capacity": 21,
      "is_operational": true,
      "num_bikes_available": 7,
      "num_docks_available": 13,
      "last_reported": 1782779706
    },
    {
      "id": "8e8eb1c3-1792-46e7-9c03-eb60e4271a52",
      "name": "Webster St at Union St",
      "lat": 37.7974387,
      "lon": -122.4339891,
      "capacity": 23,
      "is_operational": true,
      "num_bikes_available": 20,
      "num_docks_available": 1,
      "last_reported": 1782779706
    },
    {
      "id": "fb39d594-8fdb-440e-80c5-8a544b339007",
      "name": "Powell St at Columbus Ave",
      "lat": 37.800496036682574,
      "lon": -122.41088703274725,
      "capacity": 30,
      "is_operational": true,
      "num_bikes_available": 25,
      "num_docks_available": 5,
      "last_reported": 1782779701
    },
    {
      "id": "1784515760723857816",
      "name": "Great Highway at Noriega St",
      "lat": 37.75300468614256,
      "lon": -122.5085402813285,
      "capacity": 19,
      "is_operational": true,
      "num_bikes_available": 6,
      "num_docks_available": 13,
      "last_reported": 1782779707
    },
    {
      "id": "702e67bf-a75e-4352-8b20-425a19c1845c",
      "name": "Great Highway at Balboa St",
      "lat": 37.775211,
      "lon": -122.511208,
      "capacity": 27,
      "is_operational": true,
      "num_bikes_available": 1,
      "num_docks_available": 25,
      "last_reported": 1782779707
    },
    {
      "id": "748ac5c0-bb8c-4a55-9c56-6c91b2e859e1",
      "name": "MacArthur Ave at Fernandez St",
      "lat": 37.7965927,
      "lon": -122.4556884,
      "capacity": 19,
      "is_operational": true,
      "num_bikes_available": 9,
      "num_docks_available": 9,
      "last_reported": 1782779709
    },
    {
      "id": "f503bee7-b169-43c4-a1ef-5b3ddd859a7a",
      "name": "Judson Ave at Gennessee St",
      "lat": 37.728296112474,
      "lon": -122.45171263340549,
      "capacity": 27,
      "is_operational": true,
      "num_bikes_available": 6,
      "num_docks_available": 20,
      "last_reported": 1782779715
    },
    {
      "id": "a5c8beca-df86-4cac-8229-ac1d7b010401",
      "name": "15th St at Valencia St",
      "lat": 37.76660177487907,
      "lon": -122.42186344137991,
      "capacity": 23,
      "is_operational": true,
      "num_bikes_available": 1,
      "num_docks_available": 21,
      "last_reported": 1782779711
    },
    {
      "id": "1838251762103669212",
      "name": "Pompei Circle at JFK Dr",
      "lat": 37.77169999448369,
      "lon": -122.45828202004182,
      "capacity": 24,
      "is_operational": true,
      "num_bikes_available": 10,
      "num_docks_available": 11,
      "last_reported": 1782779715
    },
    {
      "id": "0c9cb910-8442-4df6-a997-704d817583ab",
      "name": "Sanchez St at 15th St",
      "lat": 37.7662185,
      "lon": -122.4310597,
      "capacity": 27,
      "is_operational": true,
      "num_bikes_available": 3,
      "num_docks_available": 23,
      "last_reported": 1782779718
    },
    {
      "id": "42952b44-cb91-43dd-bdbd-34e4f2a39046",
      "name": "Mission Bay Kids Park",
      "lat": 37.772300631747626,
      "lon": -122.39302754402159,
      "capacity": 25,
      "is_operational": true,
      "num_bikes_available": 2,
      "num_docks_available": 23,
      "last_reported": 1782779718
    },
    {
      "id": "16fbff76-56d1-4e2b-b735-ec21b8cd3181",
      "name": "Folsom St at 9th St",
      "lat": 37.7737172,
      "lon": -122.4116467,
      "capacity": 27,
      "is_operational": true,
      "num_bikes_available": 4,
      "num_docks_available": 21,
      "last_reported": 1782779723
    },
    {
      "id": "e01b3ae0-0543-484f-9085-bff4af3c174c",
      "name": "North Point St at Grant Ave",
      "lat": 37.80717108096738,
      "lon": -122.40927904844284,
      "capacity": 19,
      "is_operational": true,
      "num_bikes_available": 18,
      "num_docks_available": 1,
      "last_reported": 1782779720
    },
    {
      "id": "b15389ba-6c9e-4c5a-bd3b-e4539b8b908c",
      "name": "Page St at Masonic Ave",
      "lat": 37.771134537078765,
      "lon": -122.44534134864807,
      "capacity": 32,
      "is_operational": true,
      "num_bikes_available": 18,
      "num_docks_available": 10,
      "last_reported": 1782779727
    },
    {
      "id": "578169a8-b821-427d-934e-0b5329577ea4",
      "name": "22nd St at Dolores St",
      "lat": 37.75497924740551,
      "lon": -122.4257846673065,
      "capacity": 23,
      "is_operational": true,
      "num_bikes_available": 10,
      "num_docks_available": 13,
      "last_reported": 1782779732
    },
    {
      "id": "840ab61e-f6aa-4174-9881-5d57201ce1b9",
      "name": "Folsom St at Main St",
      "lat": 37.789073448898485,
      "lon": -122.39217904005017,
      "capacity": 22,
      "is_operational": true,
      "num_bikes_available": 8,
      "num_docks_available": 12,
      "last_reported": 1782779733
    },
    {
      "id": "38a49a05-7382-4a28-b6b1-b57c6fe99745",
      "name": "Eureka Valley Recreation Center",
      "lat": 37.759211,
      "lon": -122.4367975,
      "capacity": 19,
      "is_operational": true,
      "num_bikes_available": 16,
      "num_docks_available": 2,
      "last_reported": 1782779733
    },
    {
      "id": "c0d7ba8d-145a-40fc-aa06-f4c06fc49edb",
      "name": "Heron's Head Park",
      "lat": 37.740321776391326,
      "lon": -122.3767840862274,
      "capacity": 27,
      "is_operational": true,
      "num_bikes_available": 1,
      "num_docks_available": 26,
      "last_reported": 1782779734
    },
    {
      "id": "1716540857410079456",
      "name": "Howard St at Grace St",
      "lat": 37.7744791,
      "lon": -122.4139142,
      "capacity": 12,
      "is_operational": true,
      "num_bikes_available": 1,
      "num_docks_available": 11,
      "last_reported": 1782779737
    },
    {
      "id": "fed768af-80bd-4567-9a94-df9b7e369433",
      "name": "Balboa Park",
      "lat": 37.72489268384971,
      "lon": -122.4432384967804,
      "capacity": 23,
      "is_operational": true,
      "num_bikes_available": 6,
      "num_docks_available": 16,
      "last_reported": 1782779740
    },
    {
      "id": "1883861960584512130",
      "name": "Buchanan St at Lombard St",
      "lat": 37.800494,
      "lon": -122.432759,
      "capacity": 23,
      "is_operational": true,
      "num_bikes_available": 9,
      "num_docks_available": 14,
      "last_reported": 1782779742
    },
    {
      "id": "b65fc6af-b92c-41c5-8c63-e26cdfa3cda1",
      "name": "14th St at Mission St",
      "lat": 37.768227,
      "lon": -122.420359,
      "capacity": 19,
      "is_operational": true,
      "num_bikes_available": 6,
      "num_docks_available": 12,
      "last_reported": 1782779737
    },
    {
      "id": "fde4cecd-7497-4bdb-a452-0e1a755e7759",
      "name": "Webster St at Grove St",
      "lat": 37.7770527,
      "lon": -122.4295585,
      "capacity": 27,
      "is_operational": true,
      "num_bikes_available": 7,
      "num_docks_available": 18,
      "last_reported": 1782779738
    },
    {
      "id": "1846835113335406860",
      "name": "36th Ave at Spreckels Lake Dr",
      "lat": 37.771589,
      "lon": -122.495772,
      "capacity": 27,
      "is_operational": true,
      "num_bikes_available": 5,
      "num_docks_available": 21,
      "last_reported": 1782779737
    },
    {
      "id": "083eaf2a-4d3f-4d83-986a-98f67f7f22b4",
      "name": "Howard St at Beale St",
      "lat": 37.790296440371655,
      "lon": -122.3938751220703,
      "capacity": 31,
      "is_operational": true,
      "num_bikes_available": 6,
      "num_docks_available": 25,
      "last_reported": 1782779740
    },
    {
      "id": "2142203700417968150",
      "name": "Natoma St at 1st St",
      "lat": 37.788829107763824,
      "lon": -122.39683994554638,
      "capacity": 19,
      "is_operational": true,
      "num_bikes_available": 7,
      "num_docks_available": 10,
      "last_reported": 1782779746
    },
    {
      "id": "1796350119944825152",
      "name": "37th Ave at Ortega St",
      "lat": 37.75173717215301,
      "lon": -122.49560004673242,
      "capacity": 19,
      "is_operational": true,
      "num_bikes_available": 3,
      "num_docks_available": 16,
      "last_reported": 1782779746
    },
    {
      "id": "a6c2bd25-bdaf-4548-baeb-e203cfa52b3e",
      "name": "Quesada Ave at 3rd St",
      "lat": 37.73309280990925,
      "lon": -122.39097297191618,
      "capacity": 19,
      "is_operational": true,
      "num_bikes_available": 0,
      "num_docks_available": 19,
      "last_reported": 1782779746
    },
    {
      "id": "1774487681060536806",
      "name": "30th Ave at Noriega St",
      "lat": 37.7539295,
      "lon": -122.4883438,
      "capacity": 19,
      "is_operational": true,
      "num_bikes_available": 4,
      "num_docks_available": 13,
      "last_reported": 1782779748
    },
    {
      "id": "ed1bf0f9-aa06-4f57-8cd6-5775ff3c29f0",
      "name": "Clay St at Battery St",
      "lat": 37.795001,
      "lon": -122.39997,
      "capacity": 39,
      "is_operational": true,
      "num_bikes_available": 9,
      "num_docks_available": 30,
      "last_reported": 1782779747
    },
    {
      "id": "7dfe1c94-5eae-41a7-ad42-3d3f4c7610a3",
      "name": "Delano Ave at Oneida Ave",
      "lat": 37.72238229348268,
      "lon": -122.44380980730057,
      "capacity": 24,
      "is_operational": true,
      "num_bikes_available": 19,
      "num_docks_available": 5,
      "last_reported": 1782779752
    },
    {
      "id": "7c7ac914-40e5-426d-b9c4-f12b1a556be8",
      "name": "The Embarcadero at Vallejo St",
      "lat": 37.799953,
      "lon": -122.398525,
      "capacity": 23,
      "is_operational": true,
      "num_bikes_available": 12,
      "num_docks_available": 10,
      "last_reported": 1782779752
    },
    {
      "id": "ed438146-1615-45c6-bf54-07e2de0adcf1",
      "name": "Jackson St at Polk St",
      "lat": 37.79416044174933,
      "lon": -122.42156758904456,
      "capacity": 31,
      "is_operational": true,
      "num_bikes_available": 4,
      "num_docks_available": 24,
      "last_reported": 1782779754
    },
    {
      "id": "41c6b82b-2e59-4fa2-a7ad-f6cd0bcd9130",
      "name": "Stanyan St at Geary Blvd",
      "lat": 37.780949,
      "lon": -122.456303,
      "capacity": 19,
      "is_operational": true,
      "num_bikes_available": 3,
      "num_docks_available": 15,
      "last_reported": 1782779750
    },
    {
      "id": "2004548332289237370",
      "name": "Vicente St at 26th Ave",
      "lat": 37.73892988337994,
      "lon": -122.48314781967206,
      "capacity": 23,
      "is_operational": true,
      "num_bikes_available": 0,
      "num_docks_available": 23,
      "last_reported": 1782779757
    },
    {
      "id": "1776721445096440270",
      "name": "36th Ave at Kirkham St",
      "lat": 37.7589001,
      "lon": -122.4951291,
      "capacity": 19,
      "is_operational": true,
      "num_bikes_available": 1,
      "num_docks_available": 18,
      "last_reported": 1782779759
    },
    {
      "id": "c2169cbb-4ff3-405a-a656-729171b13d47",
      "name": "Holloway Ave at Arellano Ave",
      "lat": 37.72095,
      "lon": -122.478859,
      "capacity": 31,
      "is_operational": true,
      "num_bikes_available": 3,
      "num_docks_available": 28,
      "last_reported": 1782779755
    },
    {
      "id": "faad71bc-21e3-4ce1-8b84-63f782a91d1b",
      "name": "Davis St at Jackson St",
      "lat": 37.79728,
      "lon": -122.398436,
      "capacity": 35,
      "is_operational": true,
      "num_bikes_available": 14,
      "num_docks_available": 20,
      "last_reported": 1782779756
    },
    {
      "id": "5215d3e4-b85a-4499-a460-1b038f7a2bf1",
      "name": "Page St at Scott St",
      "lat": 37.772354,
      "lon": -122.4358575,
      "capacity": 27,
      "is_operational": true,
      "num_bikes_available": 15,
      "num_docks_available": 7,
      "last_reported": 1782779756
    },
    {
      "id": "1854261997570128336",
      "name": "Russia Ave at Madrid St",
      "lat": 37.720038,
      "lon": -122.433823,
      "capacity": 19,
      "is_operational": true,
      "num_bikes_available": 0,
      "num_docks_available": 19,
      "last_reported": 1782779760
    },
    {
      "id": "fdbfa7f9-d3eb-4c9d-ab6c-0e3300da314e",
      "name": "15th St at Potrero Ave",
      "lat": 37.767078504583665,
      "lon": -122.40735858678818,
      "capacity": 27,
      "is_operational": true,
      "num_bikes_available": 6,
      "num_docks_available": 21,
      "last_reported": 1782779763
    },
    {
      "id": "578f166a-d83f-4730-b12d-f1384b7b8c44",
      "name": "Grove St at Gough St",
      "lat": 37.77787007022392,
      "lon": -122.42295295000075,
      "capacity": 25,
      "is_operational": true,
      "num_bikes_available": 0,
      "num_docks_available": 25,
      "last_reported": 1782779764
    },
    {
      "id": "7dd926da-25ee-48fd-9de7-ad59a83f94a8",
      "name": "Post St at Divisadero St",
      "lat": 37.784419,
      "lon": -122.439361,
      "capacity": 30,
      "is_operational": true,
      "num_bikes_available": 6,
      "num_docks_available": 21,
      "last_reported": 1782779766
    },
    {
      "id": "a6bfff23-97d9-4a9d-b999-dd85168d8812",
      "name": "South Park St at 3rd St",
      "lat": 37.7807601,
      "lon": -122.3949894,
      "capacity": 29,
      "is_operational": true,
      "num_bikes_available": 12,
      "num_docks_available": 15,
      "last_reported": 1782779761
    },
    {
      "id": "94b81aae-caf3-4ad6-867f-353057ad98d5",
      "name": "Buchanan St at North Point St",
      "lat": 37.8044325,
      "lon": -122.433523,
      "capacity": 28,
      "is_operational": true,
      "num_bikes_available": 13,
      "num_docks_available": 10,
      "last_reported": 1782779760
    },
    {
      "id": "44647200-5fea-47fc-a629-c1884554afb8",
      "name": "Font Blvd at Arballo Dr",
      "lat": 37.722001,
      "lon": -122.482735,
      "capacity": 30,
      "is_operational": true,
      "num_bikes_available": 7,
      "num_docks_available": 22,
      "last_reported": 1782779771
    },
    {
      "id": "987bd538-e619-4284-beb8-c13c65fcf38b",
      "name": "Front St at California St",
      "lat": 37.7930958,
      "lon": -122.3988357,
      "capacity": 32,
      "is_operational": true,
      "num_bikes_available": 13,
      "num_docks_available": 16,
      "last_reported": 1782779773
    },
    {
      "id": "86e91819-05c0-4150-ab16-83d8480dc7f4",
      "name": "29th St at Tiffany Ave",
      "lat": 37.74402435561769,
      "lon": -122.42236317795394,
      "capacity": 19,
      "is_operational": true,
      "num_bikes_available": 2,
      "num_docks_available": 13,
      "last_reported": 1782779768
    },
    {
      "id": "f2c2ba49-25e1-4493-8565-5df5af66e153",
      "name": "Parker Ave at McAllister St",
      "lat": 37.77610091264586,
      "lon": -122.4530929327011,
      "capacity": 27,
      "is_operational": true,
      "num_bikes_available": 1,
      "num_docks_available": 25,
      "last_reported": 1782779769
    },
    {
      "id": "2103180961104061324",
      "name": "Folsom St at 21st St",
      "lat": 37.757452,
      "lon": -122.414644,
      "capacity": 19,
      "is_operational": true,
      "num_bikes_available": 8,
      "num_docks_available": 9,
      "last_reported": 1782779773
    },
    {
      "id": "11547c9b-2e36-4fc5-9e81-9d5817ae35dc",
      "name": "Jones St at Post St",
      "lat": 37.7873267660624,
      "lon": -122.41327822208405,
      "capacity": 19,
      "is_operational": true,
      "num_bikes_available": 5,
      "num_docks_available": 11,
      "last_reported": 1782779773
    },
    {
      "id": "a5c3e383-f1b0-449f-8ad4-96291f38c636",
      "name": "Post St at Webster St",
      "lat": 37.78539004090868,
      "lon": -122.43177297982335,
      "capacity": 31,
      "is_operational": true,
      "num_bikes_available": 16,
      "num_docks_available": 12,
      "last_reported": 1782779774
    },
    {
      "id": "1796768684962034320",
      "name": "Brannan St at Harriet St",
      "lat": 37.774256,
      "lon": -122.40185,
      "capacity": 28,
      "is_operational": true,
      "num_bikes_available": 3,
      "num_docks_available": 25,
      "last_reported": 1782779774
    },
    {
      "id": "71a4bb9f-1cec-4b1e-9534-51e82c9201d0",
      "name": "Alemany Blvd at Francis St",
      "lat": 37.7273951,
      "lon": -122.4354739,
      "capacity": 23,
      "is_operational": true,
      "num_bikes_available": 15,
      "num_docks_available": 8,
      "last_reported": 1782779775
    },
    {
      "id": "e7691d93-eed6-4388-b681-00ae0b455d23",
      "name": "22nd St Caltrain Station",
      "lat": 37.75770404149008,
      "lon": -122.39188492298126,
      "capacity": 35,
      "is_operational": true,
      "num_bikes_available": 2,
      "num_docks_available": 31,
      "last_reported": 1782779777
    },
    {
      "id": "d6ebe802-3db6-4106-b3c7-4791c801a91f",
      "name": "In Chan Kaajal Park",
      "lat": 37.7637348,
      "lon": -122.41552403555308,
      "capacity": 23,
      "is_operational": true,
      "num_bikes_available": 9,
      "num_docks_available": 11,
      "last_reported": 1782779777
    },
    {
      "id": "dfaaaa16-03ba-40b5-8360-6ebfc97ea541",
      "name": "Lane St at Revere Ave",
      "lat": 37.731921207892626,
      "lon": -122.3898859765855,
      "capacity": 19,
      "is_operational": true,
      "num_bikes_available": 5,
      "num_docks_available": 13,
      "last_reported": 1782779661
    },
    {
      "id": "36d93f40-149d-4b0d-ab4c-ea4aad093937",
      "name": "Leavenworth St at Broadway",
      "lat": 37.796470691622936,
      "lon": -122.4168576300144,
      "capacity": 19,
      "is_operational": true,
      "num_bikes_available": 12,
      "num_docks_available": 4,
      "last_reported": 1782779661
    },
    {
      "id": "7d463937-ff3e-4fb2-802a-f5b7cca1159e",
      "name": "Bryant St at 6th St",
      "lat": 37.77583378631289,
      "lon": -122.40269154310225,
      "capacity": 19,
      "is_operational": true,
      "num_bikes_available": 11,
      "num_docks_available": 7,
      "last_reported": 1782779697
    },
    {
      "id": "53bea4e6-b907-424c-b519-d286ffb713d8",
      "name": "Mission Dolores Park",
      "lat": 37.7614205,
      "lon": -122.4264353,
      "capacity": 27,
      "is_operational": true,
      "num_bikes_available": 12,
      "num_docks_available": 15,
      "last_reported": 1782779702
    },
    {
      "id": "1853888259818405998",
      "name": "Alemany Blvd at Ocean Ave",
      "lat": 37.72326479620352,
      "lon": -122.43782585917543,
      "capacity": 15,
      "is_operational": true,
      "num_bikes_available": 10,
      "num_docks_available": 5,
      "last_reported": 1782779702
    },
    {
      "id": "86fae8b7-9d4f-499a-9437-422a07103c57",
      "name": "Scott St at Golden Gate Ave",
      "lat": 37.77911463264767,
      "lon": -122.4368621254282,
      "capacity": 27,
      "is_operational": true,
      "num_bikes_available": 4,
      "num_docks_available": 21,
      "last_reported": 1782779668
    },
    {
      "id": "1838253785033265540",
      "name": "8th Ave at JFK Dr",
      "lat": 37.77290764129927,
      "lon": -122.46593131805308,
      "capacity": 27,
      "is_operational": true,
      "num_bikes_available": 4,
      "num_docks_available": 21,
      "last_reported": 1782779668
    },
    {
      "id": "673c88d0-961a-45ff-b394-ac9a33e58d55",
      "name": "Jersey St at Church St",
      "lat": 37.750923,
      "lon": -122.427566,
      "capacity": 19,
      "is_operational": true,
      "num_bikes_available": 5,
      "num_docks_available": 14,
      "last_reported": 1782779678
    },
    {
      "id": "7f44afe0-3e39-41d5-a73d-121395143d81",
      "name": "14th Ave at Geary Blvd",
      "lat": 37.780364,
      "lon": -122.4728095,
      "capacity": 20,
      "is_operational": true,
      "num_bikes_available": 2,
      "num_docks_available": 18,
      "last_reported": 1782779685
    },
    {
      "id": "1924343126095301624",
      "name": "Daly City BART",
      "lat": 37.707828,
      "lon": -122.468037,
      "capacity": 25,
      "is_operational": true,
      "num_bikes_available": 4,
      "num_docks_available": 20,
      "last_reported": 1782779682
    },
    {
      "id": "1867619298909571302",
      "name": "Larkin St at California St",
      "lat": 37.790588343975,
      "lon": -122.41893285742222,
      "capacity": 23,
      "is_operational": true,
      "num_bikes_available": 7,
      "num_docks_available": 16,
      "last_reported": 1782779689
    },
    {
      "id": "a967125a-632a-4423-8ccd-61e9fe92b02f",
      "name": "Hospital St at Mariposa St",
      "lat": 37.764783,
      "lon": -122.3908972,
      "capacity": 27,
      "is_operational": true,
      "num_bikes_available": 1,
      "num_docks_available": 26,
      "last_reported": 1782779692
    },
    {
      "id": "3144f47a-86f7-40f6-9ff0-5c8120babf6a",
      "name": "O'Farrell St at Divisadero St",
      "lat": 37.782404601934104,
      "lon": -122.43944585323335,
      "capacity": 27,
      "is_operational": true,
      "num_bikes_available": 11,
      "num_docks_available": 15,
      "last_reported": 1782779705
    },
    {
      "id": "e60d1fa9-6274-4137-9fa2-160a32e29afa",
      "name": "Townsend St at 6th St",
      "lat": 37.773238,
      "lon": -122.399998,
      "capacity": 23,
      "is_operational": true,
      "num_bikes_available": 2,
      "num_docks_available": 21,
      "last_reported": 1782779705
    },
    {
      "id": "2009736356508496012",
      "name": "Lincoln Blvd at Hoffman St",
      "lat": 37.806066447146506,
      "lon": -122.47028626864814,
      "capacity": 15,
      "is_operational": true,
      "num_bikes_available": 8,
      "num_docks_available": 6,
      "last_reported": 1782779705
    },
    {
      "id": "1782266301159479792",
      "name": "43rd Ave at Lawton St",
      "lat": 37.75699964338489,
      "lon": -122.50255097589334,
      "capacity": 21,
      "is_operational": true,
      "num_bikes_available": 1,
      "num_docks_available": 20,
      "last_reported": 1782779715
    },
    {
      "id": "5a895f98-fd79-4db0-b19f-e2d312acf148",
      "name": "Funston Ave at Clement St",
      "lat": 37.78244163642955,
      "lon": -122.47198741577117,
      "capacity": 27,
      "is_operational": true,
      "num_bikes_available": 3,
      "num_docks_available": 24,
      "last_reported": 1782779712
    },
    {
      "id": "f6aa360a-a056-4e50-ad1d-f67a35501595",
      "name": "SFSU Park East",
      "lat": 37.725603,
      "lon": -122.476561,
      "capacity": 15,
      "is_operational": true,
      "num_bikes_available": 3,
      "num_docks_available": 12,
      "last_reported": 1782779714
    },
    {
      "id": "38a02670-3056-43fb-8271-20fbf6baa538",
      "name": "Church St at Duboce Ave",
      "lat": 37.769818,
      "lon": -122.4291485,
      "capacity": 27,
      "is_operational": true,
      "num_bikes_available": 6,
      "num_docks_available": 20,
      "last_reported": 1782779720
    },
    {
      "id": "b48ebe9a-8d7b-4ac1-b0da-db5978404330",
      "name": "Father Alfred E Boeddeker Park",
      "lat": 37.7840775,
      "lon": -122.411926,
      "capacity": 23,
      "is_operational": true,
      "num_bikes_available": 5,
      "num_docks_available": 17,
      "last_reported": 1782779722
    },
    {
      "id": "bf116a73-3718-46c1-ac14-c295963150ae",
      "name": "Market St at Franklin St",
      "lat": 37.7737932060887,
      "lon": -122.42123901844025,
      "capacity": 35,
      "is_operational": true,
      "num_bikes_available": 4,
      "num_docks_available": 30,
      "last_reported": 1782779666
    },
    {
      "id": "d006bbb9-ba51-4958-9c4f-cdd78527bfa1",
      "name": "Duboce Park",
      "lat": 37.769219,
      "lon": -122.434166,
      "capacity": 19,
      "is_operational": true,
      "num_bikes_available": 13,
      "num_docks_available": 6,
      "last_reported": 1782779728
    },
    {
      "id": "e061c062-a4eb-4a4d-a19c-a6c6e3e03e1d",
      "name": "Laurel St at California St",
      "lat": 37.7866115,
      "lon": -122.4500525,
      "capacity": 23,
      "is_operational": true,
      "num_bikes_available": 0,
      "num_docks_available": 22,
      "last_reported": 1782779724
    },
    {
      "id": "2230149960811159412",
      "name": "Clay St at Davis St",
      "lat": 37.795377,
      "lon": -122.398278,
      "capacity": 21,
      "is_operational": true,
      "num_bikes_available": 9,
      "num_docks_available": 10,
      "last_reported": 1782779724
    },
    {
      "id": "9d47758e-44c7-4a16-a66a-efe7f942e7d1",
      "name": "Turk St at Fillmore St",
      "lat": 37.78045005996349,
      "lon": -122.43194639682768,
      "capacity": 23,
      "is_operational": true,
      "num_bikes_available": 9,
      "num_docks_available": 13,
      "last_reported": 1782779724
    },
    {
      "id": "d09b983e-bbce-4501-9e3c-7dc0fe605ff3",
      "name": "Gennessee St at Monterey Blvd",
      "lat": 37.7316566899845,
      "lon": -122.45112150907515,
      "capacity": 15,
      "is_operational": true,
      "num_bikes_available": 3,
      "num_docks_available": 12,
      "last_reported": 1782779726
    },
    {
      "id": "272f64c8-d2aa-4fe8-8fcd-9853367dc8b8",
      "name": "Spruce St at California St",
      "lat": 37.78657849953654,
      "lon": -122.45342284440996,
      "capacity": 24,
      "is_operational": true,
      "num_bikes_available": 1,
      "num_docks_available": 20,
      "last_reported": 1782779731
    },
    {
      "id": "8d2b8bc1-39ed-43c4-83ca-6da147d76bea",
      "name": "Mint St at Mission St",
      "lat": 37.78227952975499,
      "lon": -122.40731298923492,
      "capacity": 15,
      "is_operational": true,
      "num_bikes_available": 0,
      "num_docks_available": 14,
      "last_reported": 1782779732
    },
    {
      "id": "2001967917046139900",
      "name": "Great Highway at Taraval St",
      "lat": 37.74184933158748,
      "lon": -122.50705915701099,
      "capacity": 23,
      "is_operational": true,
      "num_bikes_available": 0,
      "num_docks_available": 22,
      "last_reported": 1782779748
    },
    {
      "id": "8b2524c3-cc5f-4a3d-97f6-224a540d3ecc",
      "name": "Golden Gate Ave at Polk St",
      "lat": 37.78136135362254,
      "lon": -122.41852998313826,
      "capacity": 31,
      "is_operational": true,
      "num_bikes_available": 3,
      "num_docks_available": 26,
      "last_reported": 1782779746
    },
    {
      "id": "fb66d43b-6d13-411c-ac2d-e26fbca0b0f2",
      "name": "Valencia St at Duncan St",
      "lat": 37.7469089378079,
      "lon": -122.42009732972448,
      "capacity": 20,
      "is_operational": true,
      "num_bikes_available": 4,
      "num_docks_available": 16,
      "last_reported": 1782779746
    },
    {
      "id": "6327ad76-fdd0-4ea8-a09a-f1bccca719b3",
      "name": "The Embarcadero at Steuart St",
      "lat": 37.7914015,
      "lon": -122.391038,
      "capacity": 36,
      "is_operational": true,
      "num_bikes_available": 19,
      "num_docks_available": 17,
      "last_reported": 1782779750
    },
    {
      "id": "8b4f5169-6d0c-4d43-aa31-d243c5aec7ec",
      "name": "Yerba Buena Center for the Arts",
      "lat": 37.78487208436062,
      "lon": -122.40087568759917,
      "capacity": 19,
      "is_operational": true,
      "num_bikes_available": 14,
      "num_docks_available": 2,
      "last_reported": 1782779750
    },
    {
      "id": "2030541857376983130",
      "name": "Byxbee St at Shields St",
      "lat": 37.717792,
      "lon": -122.469903,
      "capacity": 19,
      "is_operational": true,
      "num_bikes_available": 5,
      "num_docks_available": 14,
      "last_reported": 1782779767
    },
    {
      "id": "e0ae39c6-90d9-4302-8da9-582cdaaa2a60",
      "name": "Glen Park BART",
      "lat": 37.7328128005294,
      "lon": -122.43414044380188,
      "capacity": 40,
      "is_operational": true,
      "num_bikes_available": 9,
      "num_docks_available": 28,
      "last_reported": 1782779768
    },
    {
      "id": "d6ced8f4-977a-441a-86f0-27381b495794",
      "name": "16th St Mission BART South",
      "lat": 37.7646845,
      "lon": -122.4199265,
      "capacity": 12,
      "is_operational": true,
      "num_bikes_available": 3,
      "num_docks_available": 8,
      "last_reported": 1782779770
    },
    {
      "id": "83b33e8d-bf8c-4a2a-8ee3-942834af27b4",
      "name": "Laguna St at Hayes St",
      "lat": 37.7762475,
      "lon": -122.4262025,
      "capacity": 27,
      "is_operational": true,
      "num_bikes_available": 5,
      "num_docks_available": 21,
      "last_reported": 1782779770
    },
    {
      "id": "e70c8987-0178-46f2-941f-1fd0eb306ed9",
      "name": "25th Ave at Irving St",
      "lat": 37.76344319627197,
      "lon": -122.48355373749291,
      "capacity": 19,
      "is_operational": true,
      "num_bikes_available": 0,
      "num_docks_available": 17,
      "last_reported": 1782779771
    },
    {
      "id": "1781564836591126776",
      "name": "45th Ave at Noriega St",
      "lat": 37.752809,
      "lon": -122.504261,
      "capacity": 19,
      "is_operational": true,
      "num_bikes_available": 8,
      "num_docks_available": 10,
      "last_reported": 1782779770
    },
    {
      "id": "5292350c-9e2a-4d8d-bed5-b2738edc1551",
      "name": "Lyon St at Fell St",
      "lat": 37.7735622,
      "lon": -122.4425712,
      "capacity": 31,
      "is_operational": true,
      "num_bikes_available": 2,
      "num_docks_available": 27,
      "last_reported": 1782779773
    },
    {
      "id": "9d5eb122-9e8b-49db-bf9c-a73c9e88c8d2",
      "name": "Oakdale Ave at Phelps St",
      "lat": 37.7370395,
      "lon": -122.3944985,
      "capacity": 19,
      "is_operational": true,
      "num_bikes_available": 1,
      "num_docks_available": 18,
      "last_reported": 1782779773
    },
    {
      "id": "003d58af-e449-4800-aa6d-eb1bba8ad68d",
      "name": "SFSU Park West",
      "lat": 37.726266,
      "lon": -122.479462,
      "capacity": 27,
      "is_operational": true,
      "num_bikes_available": 2,
      "num_docks_available": 25,
      "last_reported": 1782779771
    },
    {
      "id": "6197f964-9002-4ddb-b4df-70d0bcf25ee9",
      "name": "22nd St at Potrero Ave",
      "lat": 37.756808,
      "lon": -122.405943,
      "capacity": 15,
      "is_operational": true,
      "num_bikes_available": 3,
      "num_docks_available": 11,
      "last_reported": 1782779770
    },
    {
      "id": "a40fc1eb-e8e9-4d41-8f77-71365f0d9064",
      "name": "Folsom St at 1st St",
      "lat": 37.78711,
      "lon": -122.39485,
      "capacity": 27,
      "is_operational": true,
      "num_bikes_available": 12,
      "num_docks_available": 13,
      "last_reported": 1782779769
    },
    {
      "id": "2f20969c-74f7-4b6a-8e23-d4d1a31b75f5",
      "name": "Division St at Potrero Ave",
      "lat": 37.769263,
      "lon": -122.407054,
      "capacity": 27,
      "is_operational": true,
      "num_bikes_available": 12,
      "num_docks_available": 13,
      "last_reported": 1782779775
    },
    {
      "id": "6c4a9d85-6ef7-43fc-82a5-172d1a045539",
      "name": "Evans Ave at Mendell St",
      "lat": 37.740048,
      "lon": -122.3834355,
      "capacity": 13,
      "is_operational": true,
      "num_bikes_available": 0,
      "num_docks_available": 13,
      "last_reported": 1782779741
    },
    {
      "id": "1835733187981824398",
      "name": "Mason St at Bay St",
      "lat": 37.805454,
      "lon": -122.413668,
      "capacity": 23,
      "is_operational": true,
      "num_bikes_available": 12,
      "num_docks_available": 11,
      "last_reported": 1782779742
    },
    {
      "id": "2127329662747539820",
      "name": "Westlake Shopping Center",
      "lat": 37.6995703917101,
      "lon": -122.48103042972481,
      "capacity": 8,
      "is_operational": true,
      "num_bikes_available": 2,
      "num_docks_available": 5,
      "last_reported": 1782779744
    },
    {
      "id": "51e8e63d-0883-47e0-b280-210e0c990a49",
      "name": "10th Ave at Irving St",
      "lat": 37.7642245,
      "lon": -122.4673775,
      "capacity": 23,
      "is_operational": true,
      "num_bikes_available": 5,
      "num_docks_available": 15,
      "last_reported": 1782779744
    },
    {
      "id": "1854263543758355442",
      "name": "Brazil Ave at La Grande Ave",
      "lat": 37.72024,
      "lon": -122.425312,
      "capacity": 19,
      "is_operational": true,
      "num_bikes_available": 0,
      "num_docks_available": 19,
      "last_reported": 1782779744
    },
    {
      "id": "a1e0b4b2-2c5c-4201-a78c-9e8a2152ab4e",
      "name": "Powell St BART South",
      "lat": 37.783899357084934,
      "lon": -122.40844488143921,
      "capacity": 35,
      "is_operational": false,
      "num_bikes_available": 0,
      "num_docks_available": 0,
      "last_reported": 1782779742
    },
    {
      "id": "1837175508962468214",
      "name": "JFK Dr at Great Highway",
      "lat": 37.770478954997095,
      "lon": -122.5105938991249,
      "capacity": 23,
      "is_operational": true,
      "num_bikes_available": 7,
      "num_docks_available": 13,
      "last_reported": 1782779743
    },
    {
      "id": "22a9d86b-ba44-4f2f-b167-355f99c7968c",
      "name": "7th St at King St",
      "lat": 37.77122901793374,
      "lon": -122.40088641643523,
      "capacity": 27,
      "is_operational": true,
      "num_bikes_available": 2,
      "num_docks_available": 24,
      "last_reported": 1782779740
    },
    {
      "id": "664a552b-479c-40c3-b702-6b0b63751ce3",
      "name": "Greenwich St at Webster St",
      "lat": 37.799207926286,
      "lon": -122.43412166833876,
      "capacity": 19,
      "is_operational": true,
      "num_bikes_available": 6,
      "num_docks_available": 12,
      "last_reported": 1782779737
    },
    {
      "id": "71af92f2-0999-4917-b7da-36e122a8f967",
      "name": "Arlington St at Roanoke St",
      "lat": 37.734966,
      "lon": -122.429772,
      "capacity": 19,
      "is_operational": true,
      "num_bikes_available": 1,
      "num_docks_available": 18,
      "last_reported": 1782779737
    },
    {
      "id": "9477b039-8d61-4917-b03a-43efb7d55c90",
      "name": "Jerrold Ave at 3rd St",
      "lat": 37.73890064447666,
      "lon": -122.38952457904814,
      "capacity": 19,
      "is_operational": true,
      "num_bikes_available": 1,
      "num_docks_available": 18,
      "last_reported": 1782779760
    },
    {
      "id": "6e52cb4a-6cd5-4d29-ad74-68e3b6aa854f",
      "name": "Indiana St at Cesar Chavez St",
      "lat": 37.7504343570623,
      "lon": -122.39044725894927,
      "capacity": 15,
      "is_operational": true,
      "num_bikes_available": 4,
      "num_docks_available": 11,
      "last_reported": 1782779759
    },
    {
      "id": "21883e7a-ea31-4cfc-843a-ca8263b39fda",
      "name": "Salesforce Transit Center",
      "lat": 37.78749210438603,
      "lon": -122.3982846736908,
      "capacity": 35,
      "is_operational": true,
      "num_bikes_available": 18,
      "num_docks_available": 10,
      "last_reported": 1782779758
    },
    {
      "id": "2109211836628411012",
      "name": "China Basin Park",
      "lat": 37.77597429246344,
      "lon": -122.38780741579664,
      "capacity": 23,
      "is_operational": true,
      "num_bikes_available": 3,
      "num_docks_available": 19,
      "last_reported": 1782779761
    },
    {
      "id": "1854258814999361838",
      "name": "Crocker-Amazon Playground",
      "lat": 37.713185,
      "lon": -122.433405,
      "capacity": 23,
      "is_operational": true,
      "num_bikes_available": 4,
      "num_docks_available": 19,
      "last_reported": 1782779753
    },
    {
      "id": "1864948538934258100",
      "name": "Balboa Park BART 2",
      "lat": 37.72063402240577,
      "lon": -122.4475379192397,
      "capacity": 19,
      "is_operational": true,
      "num_bikes_available": 0,
      "num_docks_available": 19,
      "last_reported": 1782779754
    },
    {
      "id": "2031294188952177356",
      "name": "Ashton Ave at Holloway Ave",
      "lat": 37.72161,
      "lon": -122.462331,
      "capacity": 14,
      "is_operational": true,
      "num_bikes_available": 4,
      "num_docks_available": 10,
      "last_reported": 1782779751
    },
    {
      "id": "9818c353-b93e-4775-b23c-d602913945ca",
      "name": "Clement St at 32nd Ave",
      "lat": 37.781722,
      "lon": -122.492844,
      "capacity": 23,
      "is_operational": true,
      "num_bikes_available": 3,
      "num_docks_available": 20,
      "last_reported": 1782779754
    },
    {
      "id": "91ab197f-ceb5-4dbe-b907-532afa8db43b",
      "name": "Funston Ave at Fulton St",
      "lat": 37.773587,
      "lon": -122.471357,
      "capacity": 27,
      "is_operational": true,
      "num_bikes_available": 5,
      "num_docks_available": 21,
      "last_reported": 1782779755
    },
    {
      "id": "ba3699d9-448e-4246-aa88-b7543383af4e",
      "name": "McKinnon Ave at 3rd St",
      "lat": 37.73629587217104,
      "lon": -122.38996982574461,
      "capacity": 23,
      "is_operational": true,
      "num_bikes_available": 4,
      "num_docks_available": 18,
      "last_reported": 1782779758
    },
    {
      "id": "4f7840d9-aca0-4a53-8664-e9e043d21a72",
      "name": "Fulton St at Laguna St",
      "lat": 37.77834224666045,
      "lon": -122.42637355967727,
      "capacity": 31,
      "is_operational": true,
      "num_bikes_available": 8,
      "num_docks_available": 21,
      "last_reported": 1782779758
    },
    {
      "id": "2223383405092548562",
      "name": "Polk St at Clay St - Two Segments",
      "lat": 37.792395759159554,
      "lon": -122.42107872904329,
      "capacity": 12,
      "is_operational": true,
      "num_bikes_available": 2,
      "num_docks_available": 10,
      "last_reported": 1782779763
    },
    {
      "id": "fa0488df-ff17-42f1-9250-5a2bef70072b",
      "name": "Illinois St at 20th St",
      "lat": 37.7603435,
      "lon": -122.387449,
      "capacity": 23,
      "is_operational": true,
      "num_bikes_available": 8,
      "num_docks_available": 15,
      "last_reported": 1782779763
    },
    {
      "id": "b32262f7-54fe-4ea7-9859-e761407169a5",
      "name": "Eucalyptus Dr at 20th Ave",
      "lat": 37.731085,
      "lon": -122.476163,
      "capacity": 27,
      "is_operational": true,
      "num_bikes_available": 3,
      "num_docks_available": 24,
      "last_reported": 1782779763
    },
    {
      "id": "08a1a4d2-e83a-4911-8743-41006698f4da",
      "name": "21st St at Valencia St",
      "lat": 37.75688041884717,
      "lon": -122.42090650026098,
      "capacity": 23,
      "is_operational": true,
      "num_bikes_available": 8,
      "num_docks_available": 14,
      "last_reported": 1782779765
    },
    {
      "id": "5f90cd60-c199-4919-a20c-a2e417627b9d",
      "name": "Berry St at 4th St",
      "lat": 37.77599270441184,
      "lon": -122.39300568626935,
      "capacity": 36,
      "is_operational": true,
      "num_bikes_available": 1,
      "num_docks_available": 32,
      "last_reported": 1782779766
    },
    {
      "id": "afa2db8d-61bb-461a-8019-d5cd2aa1ec25",
      "name": "Berry St at King St",
      "lat": 37.771762110313176,
      "lon": -122.39843755960464,
      "capacity": 23,
      "is_operational": true,
      "num_bikes_available": 8,
      "num_docks_available": 15,
      "last_reported": 1782779775
    },
    {
      "id": "28844b82-850f-4e02-95c6-59d6076e8516",
      "name": "4th St at Mission Bay Blvd S",
      "lat": 37.7703135,
      "lon": -122.3912365,
      "capacity": 27,
      "is_operational": true,
      "num_bikes_available": 9,
      "num_docks_available": 16,
      "last_reported": 1782779777
    },
    {
      "id": "59cb1eda-68ac-43fd-a05a-9250d7f9ace3",
      "name": "Lincoln Blvd at Graham St",
      "lat": 37.801750101596625,
      "lon": -122.4563633604339,
      "capacity": 22,
      "is_operational": true,
      "num_bikes_available": 7,
      "num_docks_available": 14,
      "last_reported": 1782779777
    },
    {
      "id": "60e50c5b-b924-4c2d-83bb-c8fe97e6c4c3",
      "name": "Grant Ave at Sutter St",
      "lat": 37.78970984996185,
      "lon": -122.40548387640955,
      "capacity": 33,
      "is_operational": true,
      "num_bikes_available": 17,
      "num_docks_available": 15,
      "last_reported": 1782779777
    },
    {
      "id": "8013d0b6-dd3a-4f9f-9fee-a1e6e21aef90",
      "name": "Bryant St at 2nd St",
      "lat": 37.783176,
      "lon": -122.393378,
      "capacity": 27,
      "is_operational": true,
      "num_bikes_available": 11,
      "num_docks_available": 16,
      "last_reported": 1782779778
    },
    {
      "id": "40aad9cb-3190-4190-b73f-95aa661cec18",
      "name": "Jackson Playground",
      "lat": 37.76505849645157,
      "lon": -122.39899474395901,
      "capacity": 27,
      "is_operational": true,
      "num_bikes_available": 8,
      "num_docks_available": 19,
      "last_reported": 1782779778
    },
    {
      "id": "2001967611063449800",
      "name": "Parque Ninos Unidos",
      "lat": 37.75446979840307,
      "lon": -122.41324959250197,
      "capacity": 23,
      "is_operational": true,
      "num_bikes_available": 3,
      "num_docks_available": 19,
      "last_reported": 1782779778
    },
    {
      "id": "31d616be-a4ad-48ec-b8be-c08650a50136",
      "name": "Tehama St at 1st St",
      "lat": 37.788032,
      "lon": -122.395626,
      "capacity": 39,
      "is_operational": true,
      "num_bikes_available": 15,
      "num_docks_available": 23,
      "last_reported": 1782779659
    },
    {
      "id": "3c09035e-28d3-4031-9148-51c08343856b",
      "name": "4th St at Harrison St",
      "lat": 37.781112,
      "lon": -122.39989,
      "capacity": 31,
      "is_operational": true,
      "num_bikes_available": 7,
      "num_docks_available": 24,
      "last_reported": 1782779688
    },
    {
      "id": "e82e7160-d8fb-452b-8f27-c0f75926d080",
      "name": "Commercial St at Montgomery St",
      "lat": 37.7942465,
      "lon": -122.402855,
      "capacity": 23,
      "is_operational": true,
      "num_bikes_available": 4,
      "num_docks_available": 16,
      "last_reported": 1782779687
    },
    {
      "id": "906d869e-f513-4c60-ab76-15e2ddc68632",
      "name": "Franklin Square",
      "lat": 37.7645435,
      "lon": -122.410349,
      "capacity": 19,
      "is_operational": true,
      "num_bikes_available": 3,
      "num_docks_available": 15,
      "last_reported": 1782779685
    },
    {
      "id": "940751e9-8763-4929-9f03-080b95e35a52",
      "name": "Potrero Ave at Mariposa St",
      "lat": 37.76328094058097,
      "lon": -122.4073773622513,
      "capacity": 27,
      "is_operational": true,
      "num_bikes_available": 19,
      "num_docks_available": 8,
      "last_reported": 1782779688
    },
    {
      "id": "64ce6633-9ea3-4dc1-b33f-c9d14c523a6a",
      "name": "San Francisco City Hall",
      "lat": 37.7788325,
      "lon": -122.4181591,
      "capacity": 19,
      "is_operational": true,
      "num_bikes_available": 2,
      "num_docks_available": 17,
      "last_reported": 1782779687
    },
    {
      "id": "7baa314e-6125-4943-b469-40cd66776104",
      "name": "Ellis St at Pierce St",
      "lat": 37.781981687527214,
      "lon": -122.43576988577843,
      "capacity": 27,
      "is_operational": true,
      "num_bikes_available": 7,
      "num_docks_available": 18,
      "last_reported": 1782779693
    },
    {
      "id": "2223382723007694206",
      "name": "Vallejo St at Stockton St - Two Segments",
      "lat": 37.79858254488445,
      "lon": -122.40883544079011,
      "capacity": 12,
      "is_operational": true,
      "num_bikes_available": 9,
      "num_docks_available": 2,
      "last_reported": 1782779683
    },
    {
      "id": "4990eb75-f06e-4737-b5e8-03f8f45ffe66",
      "name": "S Van Ness Ave at Market St",
      "lat": 37.774814,
      "lon": -122.418954,
      "capacity": 27,
      "is_operational": true,
      "num_bikes_available": 0,
      "num_docks_available": 24,
      "last_reported": 1782779717
    },
    {
      "id": "23a2bad4-3ea1-4545-87eb-acbee3efccfc",
      "name": "The Embarcadero at Sansome St",
      "lat": 37.80477,
      "lon": -122.403234,
      "capacity": 23,
      "is_operational": true,
      "num_bikes_available": 6,
      "num_docks_available": 17,
      "last_reported": 1782779716
    },
    {
      "id": "394b8db0-00f7-47b8-b85c-a36fd0de8340",
      "name": "Turk Blvd at Stanyan St",
      "lat": 37.777609310293336,
      "lon": -122.45462179183959,
      "capacity": 21,
      "is_operational": true,
      "num_bikes_available": 1,
      "num_docks_available": 20,
      "last_reported": 1782779724
    },
    {
      "id": "1773477490441269908",
      "name": "26th Ave at Noriega St",
      "lat": 37.7540396,
      "lon": -122.4840403,
      "capacity": 15,
      "is_operational": true,
      "num_bikes_available": 4,
      "num_docks_available": 9,
      "last_reported": 1782779722
    },
    {
      "id": "1933963926881769696",
      "name": "West Crissy Field",
      "lat": 37.803825552947266,
      "lon": -122.46770911705822,
      "capacity": 27,
      "is_operational": true,
      "num_bikes_available": 15,
      "num_docks_available": 10,
      "last_reported": 1782779722
    },
    {
      "id": "2230147459874709432",
      "name": "Main St at Howard St",
      "lat": 37.790882,
      "lon": -122.393846,
      "capacity": 19,
      "is_operational": true,
      "num_bikes_available": 9,
      "num_docks_available": 9,
      "last_reported": 1782779725
    },
    {
      "id": "2c3d0e1d-f278-48df-b887-4723d4bcbefe",
      "name": "20th St at Dolores St",
      "lat": 37.75823842417928,
      "lon": -122.4260938167572,
      "capacity": 27,
      "is_operational": true,
      "num_bikes_available": 10,
      "num_docks_available": 15,
      "last_reported": 1782779726
    },
    {
      "id": "dcb5ad16-caa9-4d40-b279-6d36152069a2",
      "name": "2nd St at Folsom St",
      "lat": 37.7851994,
      "lon": -122.3962173,
      "capacity": 37,
      "is_operational": true,
      "num_bikes_available": 6,
      "num_docks_available": 30,
      "last_reported": 1782779729
    },
    {
      "id": "2088720616476988050",
      "name": "Sutter St at Taylor St",
      "lat": 37.788733803461334,
      "lon": -122.41215317693552,
      "capacity": 19,
      "is_operational": true,
      "num_bikes_available": 6,
      "num_docks_available": 13,
      "last_reported": 1782779665
    },
    {
      "id": "d88b1cad-d8e4-4eff-9897-9dabbc43bcbb",
      "name": "China Basin St at 3rd St",
      "lat": 37.7719996,
      "lon": -122.3899698,
      "capacity": 31,
      "is_operational": true,
      "num_bikes_available": 5,
      "num_docks_available": 25,
      "last_reported": 1782779665
    },
    {
      "id": "ec61cf51-8375-4959-9f51-b225e317abb7",
      "name": "Frederick St at Arguello Blvd",
      "lat": 37.76578298679633,
      "lon": -122.45763659477234,
      "capacity": 19,
      "is_operational": true,
      "num_bikes_available": 1,
      "num_docks_available": 15,
      "last_reported": 1782779676
    },
    {
      "id": "a00d04e6-0159-466a-b3ab-23f9550f418c",
      "name": "Cyril Magnin St at Ellis St",
      "lat": 37.785876,
      "lon": -122.4089225,
      "capacity": 35,
      "is_operational": true,
      "num_bikes_available": 4,
      "num_docks_available": 29,
      "last_reported": 1782779698
    },
    {
      "id": "cdc26b4b-f9dc-4b00-8cf4-1665b5bf8afd",
      "name": "16th St Mission BART North",
      "lat": 37.7648385,
      "lon": -122.420141,
      "capacity": 19,
      "is_operational": true,
      "num_bikes_available": 14,
      "num_docks_available": 3,
      "last_reported": 1782779696
    },
    {
      "id": "618f7cf2-3478-4607-9081-71f3a314f56f",
      "name": "Polk St at Post St",
      "lat": 37.7870025,
      "lon": -122.420053,
      "capacity": 21,
      "is_operational": true,
      "num_bikes_available": 0,
      "num_docks_available": 16,
      "last_reported": 1782779700
    },
    {
      "id": "1933956295786795104",
      "name": "Junipero Serra Blvd at Ocean Ave",
      "lat": 37.731399849565626,
      "lon": -122.47220239061086,
      "capacity": 23,
      "is_operational": true,
      "num_bikes_available": 6,
      "num_docks_available": 17,
      "last_reported": 1782779695
    },
    {
      "id": "2143246348288584696",
      "name": "Montgomery St BART",
      "lat": 37.7896195,
      "lon": -122.400808,
      "capacity": 47,
      "is_operational": true,
      "num_bikes_available": 36,
      "num_docks_available": 10,
      "last_reported": 1782779707
    },
    {
      "id": "1926579821872118770",
      "name": "3rd St at King St",
      "lat": 37.777899,
      "lon": -122.391414,
      "capacity": 21,
      "is_operational": true,
      "num_bikes_available": 3,
      "num_docks_available": 18,
      "last_reported": 1782779707
    },
    {
      "id": "2087993940664348782",
      "name": "Illinois St at 16th St",
      "lat": 37.76667628595772,
      "lon": -122.38818440028167,
      "capacity": 15,
      "is_operational": true,
      "num_bikes_available": 0,
      "num_docks_available": 15,
      "last_reported": 1782779703
    },
    {
      "id": "87168190-5491-47c8-bb9b-187ddf6052c3",
      "name": "Terry Francois Blvd at Warriors Way",
      "lat": 37.76909488728109,
      "lon": -122.38633275032042,
      "capacity": 44,
      "is_operational": true,
      "num_bikes_available": 7,
      "num_docks_available": 36,
      "last_reported": 1782779710
    },
    {
      "id": "04678a3e-1ec0-4493-a3cc-b92e74ab40ec",
      "name": "Folsom St at 13th St",
      "lat": 37.770282,
      "lon": -122.4154585,
      "capacity": 27,
      "is_operational": true,
      "num_bikes_available": 1,
      "num_docks_available": 26,
      "last_reported": 1782779710
    },
    {
      "id": "2009737341582717294",
      "name": "Crissy Field Overlook",
      "lat": 37.80434002397924,
      "lon": -122.46977499542706,
      "capacity": 20,
      "is_operational": true,
      "num_bikes_available": 3,
      "num_docks_available": 17,
      "last_reported": 1782779710
    },
    {
      "id": "a7a6f245-fb70-495f-9598-89fa03d120f7",
      "name": "Saint Joseph's Ave at Geary Blvd",
      "lat": 37.782574,
      "lon": -122.442203,
      "capacity": 27,
      "is_operational": true,
      "num_bikes_available": 14,
      "num_docks_available": 13,
      "last_reported": 1782779707
    },
    {
      "id": "88fe4d18-7a30-4ffa-8e6d-9c8aa708e30f",
      "name": "Hyde St at Post St",
      "lat": 37.78709359600294,
      "lon": -122.41670072078705,
      "capacity": 27,
      "is_operational": true,
      "num_bikes_available": 3,
      "num_docks_available": 23,
      "last_reported": 1782779737
    },
    {
      "id": "1b13a386-c5f4-42cc-bc3b-ded95982e090",
      "name": "Powell St BART North",
      "lat": 37.7861375,
      "lon": -122.405234,
      "capacity": 35,
      "is_operational": true,
      "num_bikes_available": 26,
      "num_docks_available": 6,
      "last_reported": 1782779740
    },
    {
      "id": "63758c7b-dfd9-4548-92a2-28fe8efb2faa",
      "name": "Golden Gate Ave at Franklin St",
      "lat": 37.780805727779445,
      "lon": -122.42190607010215,
      "capacity": 31,
      "is_operational": true,
      "num_bikes_available": 8,
      "num_docks_available": 23,
      "last_reported": 1782779732
    },
    {
      "id": "b3af6593-57d4-4b9a-ba7a-b2d8051bc6b9",
      "name": "20th St at Bryant St",
      "lat": 37.759162,
      "lon": -122.4100475,
      "capacity": 15,
      "is_operational": true,
      "num_bikes_available": 5,
      "num_docks_available": 9,
      "last_reported": 1782779732
    },
    {
      "id": "2051719798880811946",
      "name": "Pine St at Market St",
      "lat": 37.79245887188364,
      "lon": -122.39792529360025,
      "capacity": 23,
      "is_operational": true,
      "num_bikes_available": 7,
      "num_docks_available": 15,
      "last_reported": 1782779732
    },
    {
      "id": "4cfebcba-c209-4f34-bcd3-2e6c4cdaee34",
      "name": "Sanchez St at 17th St",
      "lat": 37.7632417,
      "lon": -122.4306746,
      "capacity": 19,
      "is_operational": true,
      "num_bikes_available": 12,
      "num_docks_available": 7,
      "last_reported": 1782779734
    },
    {
      "id": "a0406a84-2708-4727-84bf-9ca96894ef45",
      "name": "11th St at Bryant St",
      "lat": 37.7700298,
      "lon": -122.4117258,
      "capacity": 27,
      "is_operational": true,
      "num_bikes_available": 9,
      "num_docks_available": 17,
      "last_reported": 1782779735
    },
    {
      "id": "1950404522224152644",
      "name": "Great Highway at Judah St",
      "lat": 37.760523341594734,
      "lon": -122.5095087096936,
      "capacity": 19,
      "is_operational": true,
      "num_bikes_available": 4,
      "num_docks_available": 15,
      "last_reported": 1782779731
    },
    {
      "id": "f0083331-9bf8-407f-bba2-ab00c8968db9",
      "name": "Arguello Blvd at Edward St",
      "lat": 37.778486986397496,
      "lon": -122.45864510536192,
      "capacity": 19,
      "is_operational": true,
      "num_bikes_available": 0,
      "num_docks_available": 18,
      "last_reported": 1782779735
    },
    {
      "id": "b3c834af-571f-4fee-808b-ae2a7c018b5c",
      "name": "Rhode Island St at 17th St",
      "lat": 37.76436016866067,
      "lon": -122.40263841306731,
      "capacity": 19,
      "is_operational": true,
      "num_bikes_available": 3,
      "num_docks_available": 14,
      "last_reported": 1782779744
    },
    {
      "id": "e2b8752f-c441-4d30-8bcf-f78b378c7c2d",
      "name": "Octavia Blvd at Page St",
      "lat": 37.774017937683546,
      "lon": -122.4238085746765,
      "capacity": 27,
      "is_operational": true,
      "num_bikes_available": 6,
      "num_docks_available": 20,
      "last_reported": 1782779765
    },
    {
      "id": "1874245663682684978",
      "name": "Jackson St at Sansome St",
      "lat": 37.79672497398881,
      "lon": -122.40165818847979,
      "capacity": 30,
      "is_operational": true,
      "num_bikes_available": 10,
      "num_docks_available": 19,
      "last_reported": 1782779769
    },
    {
      "id": "8dcf7ae3-7e20-4424-b515-b785799c70e9",
      "name": "4th St at Gene Friend Way",
      "lat": 37.768872,
      "lon": -122.3911087,
      "capacity": 35,
      "is_operational": true,
      "num_bikes_available": 21,
      "num_docks_available": 15,
      "last_reported": 1782779749
    },
    {
      "id": "4fc98cbd-9c9b-401b-95a6-927e30bdbd46",
      "name": "Pier 1/2 at The Embarcadero",
      "lat": 37.7963894,
      "lon": -122.3945855,
      "capacity": 22,
      "is_operational": true,
      "num_bikes_available": 8,
      "num_docks_available": 13,
      "last_reported": 1782779752
    },
    {
      "id": "0f9b43c7-8f21-4604-a8b0-05b0d76668b4",
      "name": "Scott St at California St",
      "lat": 37.788048,
      "lon": -122.438812,
      "capacity": 27,
      "is_operational": true,
      "num_bikes_available": 12,
      "num_docks_available": 14,
      "last_reported": 1782779747
    },
    {
      "id": "2127330832283642054",
      "name": "Templeton Ave at Mission St",
      "lat": 37.707854201759766,
      "lon": -122.4549390358705,
      "capacity": 8,
      "is_operational": true,
      "num_bikes_available": 1,
      "num_docks_available": 7,
      "last_reported": 1782779747
    },
    {
      "id": "fbf5768b-ac38-4841-9d94-e56a907dc5d6",
      "name": "Haight St at Lyon St",
      "lat": 37.770519,
      "lon": -122.442326,
      "capacity": 27,
      "is_operational": true,
      "num_bikes_available": 1,
      "num_docks_available": 24,
      "last_reported": 1782779754
    },
    {
      "id": "3bc86f37-b447-4c09-93bc-d98785d3e49c",
      "name": "Fillmore St at Jefferson St",
      "lat": 37.805376,
      "lon": -122.437261,
      "capacity": 27,
      "is_operational": true,
      "num_bikes_available": 13,
      "num_docks_available": 11,
      "last_reported": 1782779750
    },
    {
      "id": "aa6d4372-55f7-451a-a9ab-a546001fd8f7",
      "name": "Folsom St at 19th St",
      "lat": 37.7605936,
      "lon": -122.4148171,
      "capacity": 19,
      "is_operational": true,
      "num_bikes_available": 9,
      "num_docks_available": 10,
      "last_reported": 1782779756
    },
    {
      "id": "5fa346e2-1fcf-4abb-8e83-4602ac69cb05",
      "name": "Lyon St at Lombard St",
      "lat": 37.7981975,
      "lon": -122.4474145,
      "capacity": 27,
      "is_operational": true,
      "num_bikes_available": 14,
      "num_docks_available": 9,
      "last_reported": 1782779759
    },
    {
      "id": "e8bf72d0-c2cc-4e22-b678-4e715c2bd9ff",
      "name": "Divisadero St at Clay St",
      "lat": 37.7895875,
      "lon": -122.440683,
      "capacity": 19,
      "is_operational": true,
      "num_bikes_available": 3,
      "num_docks_available": 15,
      "last_reported": 1782779762
    },
    {
      "id": "1773375070792356796",
      "name": "21st Ave at Noriega St",
      "lat": 37.7543047,
      "lon": -122.4785927,
      "capacity": 15,
      "is_operational": true,
      "num_bikes_available": 0,
      "num_docks_available": 14,
      "last_reported": 1782779760
    },
    {
      "id": "48ce0031-e9e2-4336-a60c-d9fd6d6403a2",
      "name": "North Point St at Polk St",
      "lat": 37.805442,
      "lon": -122.42313,
      "capacity": 35,
      "is_operational": true,
      "num_bikes_available": 7,
      "num_docks_available": 24,
      "last_reported": 1782779764
    },
    {
      "id": "2127329851726100852",
      "name": "Rio Verde St at Geneva Ave",
      "lat": 37.70729102606843,
      "lon": -122.41567469415989,
      "capacity": 8,
      "is_operational": true,
      "num_bikes_available": 1,
      "num_docks_available": 7,
      "last_reported": 1782779771
    },
    {
      "id": "1776724971264590054",
      "name": "41st Ave at Irving St",
      "lat": 37.7626492,
      "lon": -122.5007785,
      "capacity": 19,
      "is_operational": true,
      "num_bikes_available": 8,
      "num_docks_available": 5,
      "last_reported": 1782779772
    },
    {
      "id": "afd6eb75-31a1-4efc-8049-b5617fc2b51f",
      "name": "Terry Francois Blvd at Mission Bay Blvd N",
      "lat": 37.7717667,
      "lon": -122.3866885,
      "capacity": 27,
      "is_operational": true,
      "num_bikes_available": 4,
      "num_docks_available": 20,
      "last_reported": 1782779776
    },
    {
      "id": "ea11aa7f-c070-46a4-a074-70604340efa2",
      "name": "San Francisco Caltrain Station - Townsend St",
      "lat": 37.776598,
      "lon": -122.395282,
      "capacity": 20,
      "is_operational": true,
      "num_bikes_available": 16,
      "num_docks_available": 5,
      "last_reported": 1782779776
    },
    {
      "id": "49cb42b6-8a2e-4e19-a4b5-0f70c5b45d39",
      "name": "8th St at Brannan St",
      "lat": 37.771431362921085,
      "lon": -122.40578681230545,
      "capacity": 31,
      "is_operational": true,
      "num_bikes_available": 3,
      "num_docks_available": 28,
      "last_reported": 1782779777
    },
    {
      "id": "4a0d887c-7e9d-4f15-a28b-aeeff05f81b6",
      "name": "Beale St at Harrison St",
      "lat": 37.787963,
      "lon": -122.3918085,
      "capacity": 23,
      "is_operational": true,
      "num_bikes_available": 5,
      "num_docks_available": 18,
      "last_reported": 1782779778
    },
    {
      "id": "2dfbc387-8432-4ac3-9526-fc79b5046eb8",
      "name": "Egbert Ave at Jennings St",
      "lat": 37.722601,
      "lon": -122.3922705,
      "capacity": 13,
      "is_operational": true,
      "num_bikes_available": 3,
      "num_docks_available": 10,
      "last_reported": 1782779571
    },
    {
      "id": "6e7a5099-b2ba-40d4-9a24-29e0ae7dfd4b",
      "name": "Potrero del Sol Park",
      "lat": 37.75167965344961,
      "lon": -122.40524997468982,
      "capacity": 23,
      "is_operational": true,
      "num_bikes_available": 16,
      "num_docks_available": 6,
      "last_reported": 1782779660
    },
    {
      "id": "2ed84bed-e42a-4f0d-a059-78a709748616",
      "name": "24th St at Chattanooga St",
      "lat": 37.75180209910512,
      "lon": -122.4265015917505,
      "capacity": 19,
      "is_operational": true,
      "num_bikes_available": 9,
      "num_docks_available": 7,
      "last_reported": 1782779667
    },
    {
      "id": "bfb90ed7-6039-4c61-9b13-fb60b1786dde",
      "name": "McAllister St at Arguello Blvd",
      "lat": 37.775328,
      "lon": -122.458104,
      "capacity": 19,
      "is_operational": true,
      "num_bikes_available": 5,
      "num_docks_available": 13,
      "last_reported": 1782779677
    },
    {
      "id": "bf7e294f-11cc-4b4a-9a37-036d0dc0f648",
      "name": "38th Ave at Balboa St",
      "lat": 37.775522,
      "lon": -122.498498,
      "capacity": 18,
      "is_operational": true,
      "num_bikes_available": 2,
      "num_docks_available": 15,
      "last_reported": 1782779672
    },
    {
      "id": "84b1ea89-19b6-4f78-92e2-2a161f75e67e",
      "name": "Market St at Steuart St",
      "lat": 37.794525,
      "lon": -122.3948805,
      "capacity": 27,
      "is_operational": true,
      "num_bikes_available": 21,
      "num_docks_available": 3,
      "last_reported": 1782779697
    },
    {
      "id": "ea3a94b3-f37e-4d32-afaf-e8bc1f89342f",
      "name": "Funston Ave at Irving St",
      "lat": 37.76393402521409,
      "lon": -122.47065067291258,
      "capacity": 27,
      "is_operational": true,
      "num_bikes_available": 0,
      "num_docks_available": 25,
      "last_reported": 1782779699
    },
    {
      "id": "1800093756410558978",
      "name": "Mabini St at Folsom St",
      "lat": 37.7824146203997,
      "lon": -122.40019999757254,
      "capacity": 35,
      "is_operational": true,
      "num_bikes_available": 9,
      "num_docks_available": 26,
      "last_reported": 1782779702
    },
    {
      "id": "37cf6b02-5cb0-4461-bf45-0ae60a1a2fb7",
      "name": "18th Ave at California St",
      "lat": 37.785111,
      "lon": -122.477667,
      "capacity": 23,
      "is_operational": true,
      "num_bikes_available": 4,
      "num_docks_available": 19,
      "last_reported": 1782779708
    },
    {
      "id": "d533df76-e03c-4ef3-b928-968aaed45823",
      "name": "Grove St at Divisadero",
      "lat": 37.775946,
      "lon": -122.4377775,
      "capacity": 19,
      "is_operational": true,
      "num_bikes_available": 1,
      "num_docks_available": 15,
      "last_reported": 1782779709
    },
    {
      "id": "1934799237325410802",
      "name": "Lakewood Ave at Ocean Ave",
      "lat": 37.72629631820366,
      "lon": -122.46441725295219,
      "capacity": 23,
      "is_operational": true,
      "num_bikes_available": 3,
      "num_docks_available": 20,
      "last_reported": 1782779683
    },
    {
      "id": "47fcca45-c6c5-4665-9f34-8852ca3c3ae8",
      "name": "24th St BART",
      "lat": 37.75199174291808,
      "lon": -122.4189799743526,
      "capacity": 20,
      "is_operational": true,
      "num_bikes_available": 11,
      "num_docks_available": 8,
      "last_reported": 1782779681
    },
    {
      "id": "37283176-b2eb-4577-a6bd-b821e0057bda",
      "name": "8th St at Hooper St",
      "lat": 37.767256698389865,
      "lon": -122.40032913185132,
      "capacity": 25,
      "is_operational": true,
      "num_bikes_available": 2,
      "num_docks_available": 21,
      "last_reported": 1782779680
    },
    {
      "id": "2004547476619383690",
      "name": "24th Ave at Quintara St",
      "lat": 37.74862812225987,
      "lon": -122.48154102855433,
      "capacity": 23,
      "is_operational": true,
      "num_bikes_available": 5,
      "num_docks_available": 15,
      "last_reported": 1782779684
    },
    {
      "id": "9d4c484b-5e48-4115-8f87-e3f19b08c9d4",
      "name": "Jennings St at Revere Ave",
      "lat": 37.72939320661727,
      "lon": -122.38653659820555,
      "capacity": 19,
      "is_operational": true,
      "num_bikes_available": 1,
      "num_docks_available": 17,
      "last_reported": 1782779684
    },
    {
      "id": "16fea24d-ec2c-4e37-8f63-fc9f793de2cf",
      "name": "Mission St at Beale St",
      "lat": 37.79125172432533,
      "lon": -122.39563061068942,
      "capacity": 33,
      "is_operational": true,
      "num_bikes_available": 16,
      "num_docks_available": 17,
      "last_reported": 1782779705
    },
    {
      "id": "175541bb-0ac6-42ba-bb50-071317d1237b",
      "name": "Masonic Ave at Turk St",
      "lat": 37.779046658472055,
      "lon": -122.44729131460188,
      "capacity": 23,
      "is_operational": true,
      "num_bikes_available": 3,
      "num_docks_available": 19,
      "last_reported": 1782779702
    },
    {
      "id": "3ccf483a-ed9f-4327-bf9b-d72b4170ebfc",
      "name": "17th St at Dolores St",
      "lat": 37.7630152,
      "lon": -122.4264968,
      "capacity": 23,
      "is_operational": true,
      "num_bikes_available": 13,
      "num_docks_available": 10,
      "last_reported": 1782779708
    },
    {
      "id": "2029409329559634886",
      "name": "Sansome St at Sutter St",
      "lat": 37.79054824861732,
      "lon": -122.40060470846142,
      "capacity": 39,
      "is_operational": true,
      "num_bikes_available": 9,
      "num_docks_available": 28,
      "last_reported": 1782779717
    },
    {
      "id": "2127329986175084730",
      "name": "Edgeworth Ave at 91st St",
      "lat": 37.690175669770674,
      "lon": -122.47446359944858,
      "capacity": 7,
      "is_operational": true,
      "num_bikes_available": 5,
      "num_docks_available": 0,
      "last_reported": 1782779718
    },
    {
      "id": "dd3ef1c7-d691-4b1f-a2d2-a9b04363ad49",
      "name": "Valencia St at Clinton Park",
      "lat": 37.7690102,
      "lon": -122.42224826223539,
      "capacity": 19,
      "is_operational": true,
      "num_bikes_available": 4,
      "num_docks_available": 11,
      "last_reported": 1782779734
    },
    {
      "id": "07303af0-cf6e-46f2-bf9c-9ebb61f21adc",
      "name": "Broadway at Kearny St",
      "lat": 37.79801364395978,
      "lon": -122.40595042705534,
      "capacity": 19,
      "is_operational": true,
      "num_bikes_available": 6,
      "num_docks_available": 11,
      "last_reported": 1782779686
    },
    {
      "id": "09a8c4ba-29d9-43bd-a457-34e8f741d673",
      "name": "7th Ave at Irving St",
      "lat": 37.76343361023245,
      "lon": -122.46406316757202,
      "capacity": 27,
      "is_operational": true,
      "num_bikes_available": 7,
      "num_docks_available": 19,
      "last_reported": 1782779688
    },
    {
      "id": "54c91186-8493-44d1-ac4f-435350fee797",
      "name": "San Francisco Public Library",
      "lat": 37.778799,
      "lon": -122.4159632,
      "capacity": 31,
      "is_operational": true,
      "num_bikes_available": 2,
      "num_docks_available": 28,
      "last_reported": 1782779689
    },
    {
      "id": "314fd7e5-4335-4b89-ac9d-2c099bc33d9f",
      "name": "Folsom St at 15th St",
      "lat": 37.7670373,
      "lon": -122.4154425,
      "capacity": 19,
      "is_operational": true,
      "num_bikes_available": 5,
      "num_docks_available": 14,
      "last_reported": 1782779696
    },
    {
      "id": "586dce76-7324-4117-9c58-7ed6d00151bf",
      "name": "Washington St at Van Ness Ave",
      "lat": 37.792979854977766,
      "lon": -122.4233016371727,
      "capacity": 27,
      "is_operational": true,
      "num_bikes_available": 5,
      "num_docks_available": 19,
      "last_reported": 1782779721
    },
    {
      "id": "8517bd49-73e1-4b27-8686-d9f38a1f1ec3",
      "name": "The Embarcadero at Pier 38",
      "lat": 37.78292608704408,
      "lon": -122.38792061805725,
      "capacity": 26,
      "is_operational": true,
      "num_bikes_available": 4,
      "num_docks_available": 22,
      "last_reported": 1782779723
    },
    {
      "id": "3437ead2-e5e0-4e1c-86cf-d925a96b2260",
      "name": "Valencia St at 24th St",
      "lat": 37.7524278,
      "lon": -122.4206278,
      "capacity": 23,
      "is_operational": true,
      "num_bikes_available": 13,
      "num_docks_available": 7,
      "last_reported": 1782779725
    },
    {
      "id": "9fae2998-e458-47f8-9c7c-978e01f05330",
      "name": "The Embarcadero at Bryant St",
      "lat": 37.787332,
      "lon": -122.3881105,
      "capacity": 19,
      "is_operational": true,
      "num_bikes_available": 4,
      "num_docks_available": 13,
      "last_reported": 1782779738
    },
    {
      "id": "f8b56cb7-cb70-4097-99c4-446fc29600c9",
      "name": "19th St at Mission St",
      "lat": 37.760278,
      "lon": -122.419074,
      "capacity": 19,
      "is_operational": true,
      "num_bikes_available": 9,
      "num_docks_available": 8,
      "last_reported": 1782779735
    },